# Time (s),Altitude (m),Vertical velocity (m/s),Vertical acceleration (m/s²),Total velocity (m/s),Total acceleration (m/s²),Position East of launch (m),Position North of launch (m),Lateral distance (m),Lateral direction (°),Lateral velocity (m/s),Lateral acceleration (m/s²),Latitude (°),Longitude (°),Gravitational acceleration (m/s²),Angle of attack (°),Roll rate (r/s),Pitch rate (r/s),Yaw rate (r/s),Mass (g),Motor mass (g),Longitudinal moment of inertia (kg·m²),Rotational moment of inertia (kg·m²),CP location (cm),CG location (cm),Stability margin calibers (​),Mach number (​),Reynolds number (​),Thrust (N),Drag force (N),Drag coefficient (​),Axial drag coefficient (​),Friction drag coefficient (​),Pressure drag coefficient (​),Base drag coefficient (​),Normal force coefficient (​),Pitch moment coefficient (​),Yaw moment coefficient (​),Side force coefficient (​),Roll moment coefficient (​),Roll forcing coefficient (​),Roll damping coefficient (​),Pitch damping coefficient (​),Coriolis acceleration (m/s²),Reference length (cm),Reference area (cm²),Vertical orientation (zenith) (°),Lateral orientation (azimuth) (°),Wind velocity (m/s),Air temperature (°C),Air pressure (mbar),Speed of sound (m/s),Simulation time step (s),Computation time (s)
0.01,1.403e-4,0.028,2.807,0.028,2.807,0,0,0,0,0,0,33,107,9.791,89.741,0,0,0,3.378e4,1.045e4,32.365,0.113,NaN,223.089,NaN,0.019,1.37e6,425.502,5.103e-8,0.524,1.213e-7,0.394,0.009,0.12,NaN,NaN,NaN,NaN,NaN,NaN,NaN,NaN,3.432e-6,16.129,204.317,90,0,6.207,5.896,856.138,334.872,0.01,0.013
0.02,0.002,0.308,28.008,0.308,28.008,0,0,0,0,0,0,33,107,9.791,87.181,0,0,0,3.377e4,1.044e4,32.36,0.113,NaN,223.074,NaN,0.019,1.383e6,1276.487,6.518e-5,0.523,1.521e-4,0.394,0.009,0.12,NaN,NaN,NaN,NaN,NaN,NaN,NaN,NaN,3.769e-5,16.129,204.317,90,0,6.258,5.896,856.138,334.872,0.01,0.015
0.03,0.008,0.84,53.218,0.84,53.218,0,0,0,0,0,0,33,107,9.791,82.413,0,0,0,3.376e4,1.044e4,32.355,0.113,NaN,223.058,NaN,0.019,1.405e6,2127.472,0.001,0.522,0.003,0.392,0.009,0.12,NaN,NaN,NaN,NaN,NaN,NaN,NaN,NaN,1.028e-4,16.129,204.317,90,0,6.308,5.896,856.137,334.872,0.01,0.016
0.04,0.019,1.5,65.991,1.5,65.991,0,0,0,0,0,0,33,107,9.791,76.727,0,0,0,3.375e4,1.043e4,32.344,0.113,NaN,223.028,NaN,0.02,1.442e6,2557.891,0.007,0.52,0.014,0.39,0.009,0.12,NaN,NaN,NaN,NaN,NaN,NaN,NaN,NaN,1.835e-4,16.129,204.317,90,0,6.359,5.896,856.136,334.872,0.01,0.018
0.05,0.038,2.163,66.308,2.163,66.308,0,0,0,0,0,0,33,107,9.791,71.352,0,0,0,3.374e4,1.041e4,32.333,0.113,NaN,222.997,NaN,0.02,1.493e6,2567.746,0.018,0.517,0.036,0.388,0.009,0.12,NaN,NaN,NaN,NaN,NaN,NaN,NaN,NaN,2.646e-4,16.129,204.317,90,0,6.409,5.896,856.134,334.872,0.01,0.019
0.06,0.063,2.829,66.624,2.829,66.624,0,0,0,0,0,0,33,107,9.791,66.206,0,0,0,3.373e4,1.04e4,32.323,0.113,NaN,222.966,NaN,0.021,1.548e6,2577.601,0.038,0.515,0.07,0.385,0.009,0.12,NaN,NaN,NaN,NaN,NaN,NaN,NaN,NaN,3.46e-4,16.129,204.317,90,0,6.416,5.896,856.131,334.872,0.01,0.021
0.07,0.094,3.498,66.941,3.498,66.941,0,0,0,0,0,0,33,107,9.791,61.425,0,0,0,3.372e4,1.039e4,32.312,0.112,NaN,222.935,NaN,0.022,1.614e6,2587.467,0.066,0.512,0.113,0.382,0.009,0.12,NaN,NaN,NaN,NaN,NaN,NaN,NaN,NaN,4.279e-4,16.129,204.317,90,0,6.423,5.896,856.128,334.872,0.01,0.022
0.08,0.133,4.171,67.259,4.171,67.259,0,0,0,0,0,0,33,107,9.791,57.031,0,0,0,3.371e4,1.038e4,32.301,0.112,NaN,222.904,NaN,0.023,1.692e6,2597.344,0.103,0.508,0.161,0.379,0.009,0.12,NaN,NaN,NaN,NaN,NaN,NaN,NaN,NaN,5.102e-4,16.129,204.317,90,0,6.43,5.896,856.124,334.872,0.01,0.023
0.09,0.178,4.846,67.576,4.846,67.576,0,0,0,0,0,0,33,107,9.791,53.024,0,0,0,3.37e4,1.037e4,32.291,0.112,NaN,222.873,NaN,0.024,1.778e6,2607.222,0.15,0.505,0.212,0.375,0.009,0.12,NaN,NaN,NaN,NaN,NaN,NaN,NaN,NaN,5.928e-4,16.129,204.317,90,0,6.437,5.895,856.119,334.871,0.01,0.024
0.1,0.229,5.525,67.894,5.525,67.894,0,0,0,0,0,0,33,107,9.791,49.39,0,0,0,3.369e4,1.036e4,32.28,0.112,NaN,222.841,NaN,0.025,1.874e6,2617.11,0.206,0.501,0.261,0.372,0.009,0.12,NaN,NaN,NaN,NaN,NaN,NaN,NaN,NaN,6.758e-4,16.129,204.317,90,0,6.444,5.895,856.114,334.871,0.01,0.025
0.11,0.288,6.207,68.212,6.207,68.212,0,0,0,0,0,0,33,107,9.791,45.727,0,0,0,3.367e4,1.035e4,32.269,0.112,NaN,222.81,NaN,0.027,1.963e6,2627.008,0.272,0.498,0.315,0.368,0.009,0.12,NaN,NaN,NaN,NaN,NaN,NaN,NaN,NaN,7.592e-4,16.129,204.317,90,0,6.367,5.895,856.107,334.871,0.01,0.027
0.12,0.354,6.892,68.53,6.892,68.53,0,0,0,0,0,0,33,107,9.791,42.381,0,0,0,3.366e4,1.034e4,32.258,0.112,NaN,222.778,NaN,0.028,2.059e6,2636.907,0.347,0.495,0.365,0.365,0.009,0.12,NaN,NaN,NaN,NaN,NaN,NaN,NaN,NaN,8.43e-4,16.129,204.317,90,0,6.29,5.894,856.1,334.871,0.01,0.028
0.13,0.426,7.581,68.849,7.581,68.849,0,0,0,0,0,0,33,107,9.791,39.334,0,0,0,3.365e4,1.032e4,32.247,0.112,NaN,222.746,NaN,0.029,2.163e6,2646.814,0.43,0.491,0.41,0.362,0.009,0.12,NaN,NaN,NaN,NaN,NaN,NaN,NaN,NaN,9.272e-4,16.129,204.317,90,0,6.212,5.894,856.093,334.87,0.01,0.029
0.14,0.505,8.272,69.168,8.272,69.168,0,0,0,0,0,0,33,107,9.791,36.562,0,0,0,3.364e4,1.031e4,32.236,0.112,NaN,222.714,NaN,0.031,2.273e6,2656.732,0.52,0.488,0.449,0.359,0.009,0.12,NaN,NaN,NaN,NaN,NaN,NaN,NaN,NaN,0.001,16.129,204.317,90,0,6.135,5.893,856.084,334.87,0.01,0.03
0.15,0.591,8.967,69.487,8.967,69.487,0,0,0,0,0,0,33,107,9.791,34.041,0,0,0,3.363e4,1.03e4,32.225,0.112,NaN,222.682,NaN,0.032,2.388e6,2666.649,0.617,0.485,0.483,0.355,0.009,0.12,NaN,NaN,NaN,NaN,NaN,NaN,NaN,NaN,0.001,16.129,204.317,90,0,6.058,5.893,856.075,334.87,0.01,0.031
0.16,0.685,9.665,69.806,9.665,69.806,0,0,0,0,0,0,33,107,9.791,32.397,0,0,0,3.362e4,1.029e4,32.214,0.112,NaN,222.65,NaN,0.034,2.526e6,2676.575,0.718,0.481,0.502,0.352,0.009,0.12,NaN,NaN,NaN,NaN,NaN,NaN,NaN,NaN,0.001,16.129,204.317,90,0,6.133,5.892,856.065,334.869,0.01,0.032
0.17,0.785,10.366,70.126,10.366,70.126,0,0,0,0,0,0,33,107,9.791,30.917,0,0,0,3.361e4,1.028e4,32.203,0.112,NaN,222.617,NaN,0.036,2.667e6,2686.51,0.825,0.478,0.518,0.348,0.01,0.12,NaN,NaN,NaN,NaN,NaN,NaN,NaN,NaN,0.001,16.129,204.317,90,0,6.208,5.891,856.055,334.869,0.01,0.034
0.18,0.892,11.071,70.446,11.071,70.446,0,0,0,0,0,0,33,107,9.791,29.578,0,0,0,3.359e4,1.027e4,32.192,0.112,NaN,222.585,NaN,0.038,2.809e6,2696.444,0.939,0.475,0.531,0.345,0.01,0.12,NaN,NaN,NaN,NaN,NaN,NaN,NaN,NaN,0.001,16.129,204.317,90,0,6.283,5.891,856.043,334.869,0.01,0.035
0.19,1.006,11.778,70.767,11.778,70.767,0,0,0,0,0,0,33,107,9.791,28.363,0,0,0,3.358e4,1.026e4,32.181,0.112,NaN,222.552,NaN,0.04,2.954e6,2706.386,1.059,0.472,0.541,0.342,0.01,0.12,NaN,NaN,NaN,NaN,NaN,NaN,NaN,NaN,0.001,16.129,204.317,90,0,6.359,5.89,856.031,334.868,0.01,0.036
0.2,1.128,12.489,71.087,12.489,71.087,0,0,0,0,0,0,33,107,9.791,27.256,0,0,0,3.357e4,1.024e4,32.169,0.112,NaN,222.519,NaN,0.042,3.1e6,2716.335,1.185,0.469,0.55,0.339,0.01,0.12,NaN,NaN,NaN,NaN,NaN,NaN,NaN,NaN,0.002,16.129,204.317,90,0,6.434,5.889,856.018,334.868,0.01,0.037
0.21,1.256,13.203,71.408,13.203,71.408,0,0,0,0,0,0,33,107,9.791,26.663,0,0,0,3.356e4,1.023e4,32.158,0.112,NaN,222.487,NaN,0.044,3.26e6,2726.285,1.324,0.468,0.556,0.339,0.01,0.12,NaN,NaN,NaN,NaN,NaN,NaN,NaN,NaN,0.002,16.129,204.317,90,0,6.63,5.888,856.004,334.867,0.01,0.039
0.22,1.392,13.92,71.729,13.92,71.729,0,0,0,0,0,0,33,107,9.791,26.12,0,0,0,3.355e4,1.022e4,32.147,0.112,NaN,222.453,NaN,0.046,3.421e6,2736.24,1.471,0.468,0.56,0.338,0.01,0.12,NaN,NaN,NaN,NaN,NaN,NaN,NaN,NaN,0.002,16.129,204.317,90,0,6.825,5.887,855.99,334.867,0.01,0.041
0.23,1.534,14.64,72.05,14.64,72.05,0,0,0,0,0,0,33,107,9.791,25.621,0,0,0,3.354e4,1.021e4,32.135,0.112,NaN,222.42,NaN,0.048,3.583e6,2746.203,1.626,0.468,0.565,0.338,0.01,0.12,NaN,NaN,NaN,NaN,NaN,NaN,NaN,NaN,0.002,16.129,204.317,90,0,7.021,5.886,855.975,334.866,0.01,0.042
0.24,1.684,15.364,72.372,15.364,72.372,0,0,0,0,0,0,33,107,9.791,25.161,0,0,0,3.352e4,1.02e4,32.124,0.112,NaN,222.387,NaN,0.051,3.746e6,2756.165,1.788,0.467,0.569,0.338,0.01,0.12,NaN,NaN,NaN,NaN,NaN,NaN,NaN,NaN,0.002,16.129,204.317,90,0,7.217,5.885,855.959,334.865,0.01,0.043
0.25,1.842,16.091,72.693,16.091,72.693,0,0,0,0,0,0,33,107,9.791,24.734,0,0,0,3.351e4,1.018e4,32.112,0.112,NaN,222.353,NaN,0.053,3.91e6,2766.133,1.96,0.467,0.572,0.337,0.01,0.12,NaN,NaN,NaN,NaN,NaN,NaN,NaN,NaN,0.002,16.129,204.317,90,0,7.413,5.884,855.942,334.865,0.01,0.044
0.26,2.006,16.821,73.015,16.821,73.015,0,0,0,0,0,0,33,107,9.791,23.848,0,0,0,3.35e4,1.017e4,32.101,0.112,NaN,222.319,NaN,0.055,4.058e6,2776.106,2.137,0.467,0.579,0.337,0.01,0.12,NaN,NaN,NaN,NaN,NaN,NaN,NaN,NaN,0.002,16.129,204.317,90,0,7.436,5.883,855.925,334.864,0.01,0.045
0.27,2.178,17.554,73.337,17.554,73.337,0,0,0,0,0,0,33,107,9.791,23.02,0,0,0,3.349e4,1.016e4,32.089,0.112,NaN,222.286,NaN,0.057,4.209e6,2786.079,2.321,0.467,0.585,0.337,0.01,0.12,NaN,NaN,NaN,NaN,NaN,NaN,NaN,NaN,0.002,16.129,204.317,90,0,7.459,5.882,855.906,334.864,0.01,0.046
0.28,2.357,18.291,73.66,18.291,73.66,0,0,0,0,0,0,33,107,9.791,22.247,0,0,0,3.348e4,1.015e4,32.077,0.112,NaN,222.252,NaN,0.059,4.361e6,2796.056,2.512,0.466,0.589,0.336,0.01,0.12,NaN,NaN,NaN,NaN,NaN,NaN,NaN,NaN,0.002,16.129,204.317,90,0,7.482,5.881,855.887,334.863,0.01,0.048
0.29,2.544,19.03,73.982,19.03,73.982,0,0,0,0,0,0,33,107,9.791,21.522,0,0,0,3.346e4,1.014e4,32.066,0.112,NaN,222.218,NaN,0.061,4.514e6,2806.038,2.71,0.466,0.593,0.336,0.01,0.12,NaN,NaN,NaN,NaN,NaN,NaN,NaN,NaN,0.002,16.129,204.317,90,0,7.505,5.88,855.867,334.862,0.01,0.049
0.3,2.738,19.773,74.305,19.773,74.305,0,0,0,0,0,0,33,107,9.791,20.842,0,0,0,3.345e4,1.012e4,32.054,0.112,NaN,222.183,NaN,0.063,4.669e6,2816.02,2.915,0.466,0.596,0.336,0.01,0.121,NaN,NaN,NaN,NaN,NaN,NaN,NaN,NaN,0.002,16.129,204.317,90,0,7.528,5.879,855.847,334.861,0.01,0.05
0.31,2.939,20.519,74.628,20.519,74.628,0,0,0,0,0,0,33,107,9.791,20.056,0,0,0,3.344e4,1.011e4,32.042,0.112,NaN,222.149,NaN,0.065,4.82e6,2826.005,3.123,0.466,0.6,0.336,0.01,0.121,NaN,NaN,NaN,NaN,NaN,NaN,NaN,NaN,0.003,16.129,204.317,90,0,7.491,5.877,855.825,334.861,0.01,0.052
0.32,3.148,21.269,74.951,21.269,74.951,0,0,0,0,0,0,33,107,9.791,19.316,0,0,0,3.343e4,1.01e4,32.03,0.112,NaN,222.114,NaN,0.067,4.973e6,2835.993,3.337,0.466,0.602,0.336,0.01,0.121,NaN,NaN,NaN,NaN,NaN,NaN,NaN,NaN,0.003,16.129,204.317,90,0,7.455,5.876,855.803,334.86,0.01,0.053
0.33,3.365,22.021,75.275,22.021,75.275,0,0,0,0,0,0,33,107,9.791,18.617,0,0,0,3.341e4,1.009e4,32.018,0.112,NaN,222.08,NaN,0.069,5.127e6,2845.981,3.557,0.466,0.603,0.335,0.01,0.121,NaN,NaN,NaN,NaN,NaN,NaN,NaN,NaN,0.003,16.129,204.317,90,0,7.418,5.875,855.78,334.859,0.01,0.055
0.34,3.589,22.777,75.599,22.777,75.599,0,0,0,0,0,0,33,107,9.791,17.957,0,0,0,3.34e4,1.007e4,32.006,0.112,NaN,222.045,NaN,0.072,5.283e6,2855.972,3.782,0.465,0.604,0.335,0.01,0.121,NaN,NaN,NaN,NaN,NaN,NaN,NaN,NaN,0.003,16.129,204.317,90,0,7.382,5.873,855.756,334.858,0.01,0.055
0.35,3.82,23.536,75.923,23.536,75.923,0,0,0,0,0,0,33,107,9.791,17.333,0,0,0,3.339e4,1.006e4,31.994,0.112,NaN,222.01,NaN,0.074,5.44e6,2865.964,4.012,0.465,0.605,0.335,0.01,0.121,NaN,NaN,NaN,NaN,NaN,NaN,NaN,NaN,0.003,16.129,204.317,90,0,7.346,5.872,855.732,334.857,0.01,0.056
0.36,4.06,24.299,76.246,24.299,76.246,0,0,0,0,0,0,33,107,9.791,16.829,0,0,0,3.338e4,1.005e4,31.982,0.112,NaN,221.975,NaN,0.076,5.601e6,2875.957,4.252,0.465,0.605,0.335,0.01,0.121,NaN,NaN,NaN,NaN,NaN,NaN,NaN,NaN,0.003,16.129,204.317,90,0,7.35,5.87,855.706,334.856,0.01,0.057
0.37,4.306,25.064,76.571,25.064,76.571,0,0,0,0,0,0,33,107,9.791,16.351,0,0,0,3.336e4,1.004e4,31.97,0.112,NaN,221.939,NaN,0.078,5.763e6,2885.95,4.496,0.465,0.604,0.334,0.01,0.121,NaN,NaN,NaN,NaN,NaN,NaN,NaN,NaN,0.003,16.129,204.317,90,0,7.354,5.868,855.68,334.855,0.01,0.06
0.38,4.561,25.833,76.896,25.833,76.896,0,0,0,0,0,0,33,107,9.791,15.897,0,0,0,3.335e4,1.002e4,31.958,0.112,NaN,221.904,NaN,0.08,5.926e6,2895.945,4.744,0.465,0.603,0.334,0.01,0.121,NaN,NaN,NaN,NaN,NaN,NaN,NaN,NaN,0.003,16.129,204.317,90,0,7.357,5.867,855.653,334.854,0.01,0.061
0.39,4.823,26.605,77.22,26.605,77.22,0,0,0,0,0,0,33,107,9.791,15.466,0,0,0,3.334e4,1.001e4,31.946,0.112,NaN,221.868,NaN,0.082,6.09e6,2905.939,4.997,0.465,0.601,0.334,0.01,0.121,NaN,NaN,NaN,NaN,NaN,NaN,NaN,NaN,0.003,16.129,204.317,90,0,7.361,5.865,855.625,334.853,0.01,0.062
0.4,5.093,27.38,77.545,27.38,77.545,0,0,0,0,0,0,33,107,9.791,15.056,0,0,0,3.333e4,9999.82,31.933,0.112,NaN,221.832,NaN,0.085,6.255e6,2915.934,5.254,0.465,0.599,0.334,0.01,0.121,NaN,NaN,NaN,NaN,NaN,NaN,NaN,NaN,0.003,16.129,204.317,90,0,7.365,5.863,855.596,334.852,0.01,0.063
0.41,5.371,28.159,77.871,28.159,77.871,0,0,0,0,0,0,33,107,9.791,14.503,0,0,0,3.331e4,9987.192,31.921,0.112,NaN,221.797,NaN,0.087,6.417e6,2925.928,5.499,0.464,0.596,0.334,0.01,0.121,NaN,NaN,NaN,NaN,NaN,NaN,NaN,NaN,0.003,16.129,204.317,90,0,7.284,5.861,855.567,334.851,0.01,0.064
0.42,5.656,28.941,78.197,28.941,78.197,0,0,0,0,0,0,33,107,9.791,13.975,0,0,0,3.33e4,9974.563,31.909,0.112,NaN,221.761,NaN,0.089,6.579e6,2935.922,5.746,0.464,0.592,0.334,0.01,0.121,NaN,NaN,NaN,NaN,NaN,NaN,NaN,NaN,0.004,16.129,204.317,90,0,7.202,5.86,855.536,334.85,0.01,0.065
0.43,5.95,29.726,78.523,29.726,78.523,0,0,0,0,0,0,33,107,9.791,13.471,0,0,0,3.329e4,9961.805,31.896,0.112,NaN,221.724,NaN,0.091,6.743e6,2945.915,5.995,0.464,0.588,0.333,0.01,0.121,NaN,NaN,NaN,NaN,NaN,NaN,NaN,NaN,0.004,16.129,204.317,90,0,7.121,5.858,855.505,334.849,0.01,0.066
0.44,6.251,30.514,78.85,30.514,78.85,0,0,0,0,0,0,33,107,9.791,12.991,0,0,0,3.328e4,9949.047,31.884,0.112,NaN,221.688,NaN,0.094,6.908e6,2955.907,6.247,0.464,0.584,0.333,0.01,0.121,NaN,NaN,NaN,NaN,NaN,NaN,NaN,NaN,0.004,16.129,204.317,90,0,7.039,5.856,855.473,334.847,0.01,0.067
0.45,6.56,31.306,79.177,31.306,79.177,0,0,0,0,0,0,33,107,9.791,12.531,0,0,0,3.326e4,9936.289,31.871,0.112,NaN,221.652,NaN,0.096,7.074e6,2965.898,6.503,0.464,0.579,0.333,0.01,0.121,NaN,NaN,NaN,NaN,NaN,NaN,NaN,NaN,0.004,16.129,204.317,90,0,6.958,5.854,855.44,334.846,0.01,0.068
0.46,6.877,32.101,79.503,32.101,79.503,0,0,0,0,0,0,33,107,9.791,12.233,0,0,0,3.325e4,9923.402,31.859,0.112,NaN,221.615,NaN,0.098,7.246e6,2975.888,6.786,0.464,0.576,0.333,0.01,0.121,NaN,NaN,NaN,NaN,NaN,NaN,NaN,NaN,0.004,16.129,204.317,90,0,6.96,5.852,855.407,334.845,0.01,0.07
0.47,7.202,32.899,79.829,32.899,79.829,0,0,0,0,0,0,33,107,9.791,11.948,0,0,0,3.324e4,9910.515,31.846,0.112,NaN,221.578,NaN,0.1,7.418e6,2985.874,7.076,0.464,0.573,0.333,0.01,0.121,NaN,NaN,NaN,NaN,NaN,NaN,NaN,NaN,0.004,16.129,204.317,90,0,6.962,5.85,855.372,334.844,0.01,0.071
0.48,7.535,33.701,80.156,33.701,80.156,0,0,0,0,0,0,33,107,9.791,11.675,0,0,0,3.322e4,9897.627,31.833,0.112,NaN,221.541,NaN,0.103,7.591e6,2995.861,7.371,0.464,0.571,0.333,0.01,0.121,NaN,NaN,NaN,NaN,NaN,NaN,NaN,NaN,0.004,16.129,204.317,90,0,6.964,5.847,855.337,334.842,0.01,0.072
0.49,7.876,34.505,80.483,34.505,80.483,0,0,0,0,0,0,33,107,9.791,11.413,0,0,0,3.321e4,9884.611,31.821,0.112,NaN,221.504,NaN,0.105,7.764e6,3005.844,7.674,0.464,0.568,0.332,0.01,0.121,NaN,NaN,NaN,NaN,NaN,NaN,NaN,NaN,0.004,16.129,204.317,90,0,6.966,5.845,855.3,334.841,0.01,0.073
0.5,8.225,35.313,80.809,35.313,80.809,0,0,0,0,0,0,33,107,9.791,11.162,0,0,0,3.32e4,9871.594,31.808,0.112,NaN,221.467,NaN,0.107,7.939e6,3015.823,7.983,0.464,0.565,0.332,0.01,0.122,NaN,NaN,NaN,NaN,NaN,NaN,NaN,NaN,0.004,16.129,204.317,90,0,6.968,5.843,855.263,334.84,0.01,0.075
0.51,8.582,36.124,81.136,36.124,81.136,0,0,0,0,0,0,33,107,9.791,10.973,0,0,0,3.319e4,9858.578,31.795,0.112,NaN,221.429,NaN,0.11,8.116e6,3025.802,8.311,0.464,0.563,0.332,0.01,0.122,NaN,NaN,NaN,NaN,NaN,NaN,NaN,NaN,0.004,16.129,204.317,90,0,7.004,5.841,855.225,334.838,0.01,0.076
0.52,8.947,36.939,81.462,36.939,81.462,0,0,0,0,0,0,33,107,9.791,10.792,0,0,0,3.317e4,9845.432,31.782,0.112,NaN,221.392,NaN,0.112,8.294e6,3035.777,8.646,0.464,0.56,0.332,0.01,0.122,NaN,NaN,NaN,NaN,NaN,NaN,NaN,NaN,0.005,16.129,204.317,90,0,7.041,5.838,855.186,334.837,0.01,0.077
0.53,9.321,37.757,81.789,37.757,81.789,0,0,0,0,0,0,33,107,9.791,10.617,0,0,0,3.316e4,9832.286,31.769,0.112,NaN,221.354,NaN,0.115,8.472e6,3045.746,8.989,0.463,0.558,0.332,0.01,0.122,NaN,NaN,NaN,NaN,NaN,NaN,NaN,NaN,0.005,16.129,204.317,90,0,7.078,5.836,855.147,334.835,0.01,0.078
0.54,9.703,38.578,82.115,38.578,82.115,0,0,0,0,0,0,33,107,9.791,10.449,0,0,0,3.315e4,9819.14,31.756,0.112,NaN,221.316,NaN,0.117,8.651e6,3055.716,9.34,0.463,0.556,0.332,0.01,0.122,NaN,NaN,NaN,NaN,NaN,NaN,NaN,NaN,0.005,16.129,204.317,90,0,7.114,5.833,855.106,334.834,0.01,0.079
0.55,10.093,39.402,82.442,39.402,82.442,0,0,0,0,0,0,33,107,9.791,10.287,0,0,0,3.313e4,9805.866,31.743,0.112,NaN,221.278,NaN,0.12,8.831e6,3065.679,9.699,0.463,0.554,0.332,0.01,0.122,NaN,NaN,NaN,NaN,NaN,NaN,NaN,NaN,0.005,16.129,204.317,90,0,7.151,5.831,855.064,334.832,0.01,0.08
0.565,10.693,40.644,82.857,40.644,82.865,-1.304e-4,0,1.304e-4,-180,0.017,1.181,33,107,9.791,10.057,0,1.687e-4,-4.789e-8,3.311e4,9785.954,31.724,0.112,227.244,221.221,0.373,0.123,9.103e6,3078.125,10.253,0.463,0.552,0.331,0.01,0.122,2.097,0.783,3.708e-4,0,0,0,0,5.926e-6,0.005,16.129,204.317,90,0.006,7.226,5.827,855.001,334.83,0.015,0.081
0.588,11.628,42.522,83.479,42.522,83.488,-8.266e-4,0,8.266e-4,-180,0.045,1.229,33,107,9.791,9.731,0,4.52e-4,1.316e-7,3.308e4,9755.86,31.694,0.112,227.702,221.134,0.407,0.129,9.513e6,3096.785,11.118,0.463,0.548,0.331,0.01,0.122,2.002,0.815,3.874e-4,0,0,0,0,3.894e-5,0.005,16.129,204.317,89.997,-0.005,7.339,5.821,854.901,334.826,0.023,0.082
0.621,13.112,45.368,84.414,45.368,84.423,-0.003,-5.816e-9,0.003,-180,0.087,1.249,33,107,9.791,9.065,0,9.479e-4,-2.053e-7,3.304e4,9710.35,31.649,0.112,228.68,221.003,0.476,0.137,1.013e7,3124.737,12.419,0.463,0.54,0.331,0.01,0.122,1.812,0.863,-3.693e-4,0,0,0,0,1.51e-4,0.006,16.129,204.317,89.989,-0.001,7.334,5.811,854.743,334.82,0.034,0.083
0.671,15.487,49.653,85.806,49.653,85.815,-0.009,-3.171e-8,0.009,-180,0.149,1.264,33,107,9.791,8.227,0,0.002,-1.786e-7,3.297e4,9642.015,31.581,0.112,230.003,220.805,0.57,0.15,1.106e7,3166.264,14.527,0.463,0.529,0.33,0.01,0.123,1.584,0.903,-3.212e-4,0,0,0,0,4.853e-4,0.006,16.129,204.317,89.964,-0.001,7.36,5.796,854.491,334.811,0.05,0.085
0.721,18.079,54.021,87.437,54.022,87.447,-0.018,-9.324e-8,0.018,-180,0.213,1.294,33,107,9.791,7.69,0,0.003,-2.566e-7,3.29e4,9572.656,31.512,0.111,230.917,220.603,0.639,0.163,1.202e7,3215.687,16.938,0.463,0.523,0.329,0.01,0.123,1.444,0.922,-3.064e-4,0,0,0,0,0.001,0.007,16.129,204.317,89.921,-1.309e-4,7.584,5.779,854.215,334.801,0.05,0.086
0.771,20.891,58.471,89.065,58.472,89.075,-0.03,-1.959e-7,0.03,-180,0.278,1.292,33,107,9.791,7.235,0,0.004,-3.66e-7,3.283e4,9502.167,31.441,0.111,231.732,220.397,0.703,0.176,1.299e7,3264.895,19.601,0.463,0.517,0.329,0.01,0.124,1.33,0.933,1.904e-4,0,0,0,0,0.002,0.007,16.129,204.317,89.856,5.238e-4,7.85,5.761,853.916,334.79,0.05,0.087
0.821,23.928,63.003,90.692,63.004,90.7,-0.046,-3.491e-7,0.046,-180,0.341,1.19,33,107,9.791,6.665,0,0.006,-4.078e-7,3.276e4,9430.647,31.369,0.111,232.808,220.187,0.783,0.19,1.398e7,3313.853,22.417,0.464,0.511,0.328,0.011,0.125,1.191,0.93,4.598e-4,0,0,0,0,0.003,0.008,16.129,204.317,89.765,0.001,7.967,5.741,853.593,334.778,0.05,0.088
0.871,27.193,67.615,92.32,67.616,92.324,-0.064,-5.396e-7,0.064,-180,0.394,0.888,33,107,9.791,5.76,0,0.008,4.034e-7,3.269e4,9358.119,31.296,0.111,234.646,219.973,0.91,0.203,1.498e7,3362.519,25.231,0.464,0.501,0.328,0.011,0.125,0.984,0.89,2.866e-4,0,0,0,0,0.004,0.008,16.129,204.317,89.644,0.002,7.639,5.72,853.245,334.765,0.05,0.089
0.921,30.691,72.308,93.936,72.31,93.938,-0.085,-7.293e-7,0.085,-180,0.429,0.578,33,107,9.791,5.132,0,0.01,-5.978e-7,3.261e4,9284.48,31.222,0.111,236.04,219.755,1.01,0.217,1.6e7,3410.857,28.436,0.464,0.495,0.327,0.011,0.126,0.848,0.849,-1.407e-4,0,0,0,0,0.006,0.009,16.129,204.317,89.49,0.003,7.572,5.697,852.873,334.751,0.05,0.09
0.971,34.426,77.082,95.538,77.083,95.538,-0.107,-8.779e-7,0.107,-180,0.451,0.274,33,107,9.791,4.779,0,0.012,-1.578e-6,3.254e4,9209.832,31.146,0.111,236.876,219.533,1.075,0.231,1.704e7,3458.83,32.086,0.465,0.492,0.327,0.011,0.127,0.774,0.824,1.605e-5,0,0,0,0,0.008,0.009,16.129,204.317,89.299,0.003,7.846,5.673,852.476,334.737,0.05,0.091
1.021,38.402,81.935,97.131,81.937,97.131,-0.13,-9.406e-7,0.13,-180,0.453,0.212,33,107,9.791,4.248,0,0.014,3.613e-7,3.246e4,9134.199,31.069,0.111,238.194,219.307,1.171,0.246,1.81e7,3506.394,35.874,0.465,0.487,0.326,0.011,0.128,0.668,0.772,2.204e-4,0,0,0,0,0.01,0.01,16.129,204.317,89.069,0.002,7.879,5.647,852.053,334.721,0.05,0.092
1.071,42.622,86.868,98.711,86.869,98.715,-0.152,-8.732e-7,0.152,-180,0.426,0.861,33,107,9.791,3.631,0,0.016,0,3.238e4,9057.482,30.99,0.111,239.828,219.077,1.287,0.26,1.917e7,3553.511,39.875,0.466,0.483,0.326,0.012,0.129,0.551,0.697,-8.794e-5,0,0,0,0,0.012,0.011,16.129,204.317,88.797,0.002,7.771,5.619,851.604,334.704,0.05,0.092
1.121,47.09,91.878,100.269,91.879,100.281,-0.171,-7.015e-7,0.171,-180,0.364,1.557,33,107,9.791,3.188,0,0.019,-7.159e-7,3.231e4,8979.785,30.91,0.111,241.089,218.842,1.379,0.275,2.027e7,3600.144,44.321,0.467,0.48,0.325,0.012,0.13,0.471,0.635,1.27e-4,0,0,0,0,0.015,0.011,16.129,204.317,88.482,0.001,7.926,5.59,851.129,334.687,0.05,0.093
1.171,51.811,96.966,101.804,96.966,101.831,-0.187,-4.351e-7,0.187,-180,0.267,2.351,33,107,9.791,2.805,0,0.021,-1.639e-6,3.223e4,8901.132,30.828,0.111,242.241,218.604,1.466,0.291,2.138e7,3646.246,49.148,0.468,0.478,0.325,0.012,0.131,0.405,0.577,-4.685e-4,0,0,0,0,0.017,0.012,16.129,204.317,88.123,9.974e-4,8.207,5.56,850.627,334.668,0.05,0.094
1.221,56.789,102.129,103.313,102.129,103.368,-0.197,-3.309e-8,0.197,-180,0.123,3.393,33,107,9.791,2.22,-8.961e-9,0.024,-1.123e-6,3.215e4,8821.433,30.745,0.11,244.099,218.361,1.596,0.306,2.25e7,3691.779,54.162,0.469,0.475,0.324,0.012,0.132,0.309,0.474,2.641e-4,0,0,0,0,0.019,0.012,16.129,204.317,87.72,7.784e-4,8.16,5.527,850.097,334.648,0.05,0.095
1.271,62.026,107.367,104.786,107.367,104.889,-0.199,5.133e-7,0.199,180,0.079,4.654,33,107,9.791,1.498,0,0.026,8.176e-7,3.207e4,8740.789,30.661,0.11,246.594,218.114,1.766,0.322,2.364e7,3736.708,59.479,0.47,0.473,0.324,0.013,0.133,0.199,0.331,2.316e-4,0,0,0,0,0.02,0.013,16.129,204.317,87.277,4.051e-4,7.844,5.493,849.54,334.628,0.05,0.095
1.321,67.527,112.676,106.218,112.677,106.387,-0.188,1.192e-6,0.188,180,0.347,5.999,33,107,9.791,0.846,-1.62e-8,0.027,-1.7e-6,3.199e4,8659.227,30.576,0.11,249.074,217.863,1.935,0.338,2.479e7,3780.981,65.314,0.471,0.472,0.323,0.013,0.135,0.107,0.187,-2.489e-4,0,0,0,0,0.02,0.014,16.129,204.317,86.802,1.397e-4,7.615,5.457,848.955,334.606,0.05,0.096
1.371,73.295,118.056,107.605,118.058,107.859,-0.163,1.971e-6,0.163,179.999,0.684,7.403,33,107,9.791,0.266,0,0.028,4.973e-6,3.19e4,8576.663,30.489,0.11,251.492,217.608,2.101,0.354,2.596e7,3824.562,71.696,0.472,0.472,0.323,0.014,0.136,0.032,0.048,-3.146e-4,0,0,0,0,0.02,0.014,16.129,204.317,86.309,-1.219e-4,7.481,5.42,848.341,334.583,0.05,0.097
1.421,79.334,123.503,108.948,123.508,109.304,-0.119,2.827e-6,0.119,179.999,1.093,8.819,33,107,9.791,0.218,-9.927e-9,-0.028,7.022e-6,3.182e4,8493.199,30.4,0.11,251.742,217.348,2.132,0.37,2.714e7,3867.415,78.641,0.474,0.474,0.322,0.014,0.138,0.026,0.074,4.64e-4,0,0,0,0,-0.018,0.015,16.129,204.317,85.81,-5.337e-4,7.479,5.381,847.699,334.56,0.05,0.098
1.471,85.647,129.016,110.245,129.026,110.72,-0.052,3.603e-6,0.052,179.996,1.57,10.24,33,107,9.791,0.601,1.98e-8,-0.027,-2.464e-6,3.174e4,8408.862,30.31,0.11,250.183,217.085,2.052,0.387,2.835e7,3909.488,86.136,0.475,0.476,0.321,0.014,0.139,0.075,0.169,-3.646e-4,0,0,0,0,-0.015,0.016,16.129,204.317,85.32,-0.001,7.629,5.34,847.028,334.535,0.05,0.099
1.521,92.238,134.592,111.486,134.609,112.106,0.04,4.089e-6,0.04,0.006,2.124,11.771,33,107,9.791,1.076,-6.521e-9,-0.025,1.854e-7,3.165e4,8323.577,30.219,0.11,248.363,216.817,1.956,0.403,2.955e7,3950.747,94.21,0.477,0.478,0.321,0.015,0.141,0.139,0.284,-1.546e-4,0,0,0,0,-0.012,0.016,16.129,204.317,84.854,-0.002,7.449,5.297,846.327,334.509,0.05,0.1
1.571,99.108,140.228,112.682,140.255,113.46,0.161,3.935e-6,0.161,0.001,2.753,13.271,33,107,9.791,1.491,0,-0.022,2.325e-6,3.156e4,8237.443,30.126,0.11,246.883,216.545,1.881,0.42,3.077e7,3991.155,102.873,0.478,0.482,0.32,0.015,0.143,0.198,0.382,3.85e-4,0,0,0,0,-0.009,0.017,16.129,204.317,84.43,-0.002,7.244,5.252,845.596,334.482,0.05,0.101
1.621,106.262,145.922,113.83,145.963,114.78,0.316,2.912e-6,0.316,5.274e-4,3.457,14.74,33,107,9.791,1.901,-1.622e-8,-0.018,2.875e-6,3.148e4,8150.489,30.032,0.11,245.501,216.268,1.812,0.437,3.2e7,4030.66,112.16,0.48,0.485,0.319,0.016,0.145,0.26,0.477,-2.967e-4,0,0,0,0,-0.005,0.018,16.129,204.317,84.07,-0.002,6.816,5.206,844.87,334.454,0.05,0.102
1.671,113.702,151.672,114.976,151.731,116.065,0.508,8.107e-7,0.508,9.139e-5,4.229,15.864,33,107,9.791,2.092,-8.149e-9,-0.013,1.148e-6,3.139e4,8062.649,29.937,0.109,244.918,215.988,1.794,0.455,3.325e7,4069.228,121.852,0.482,0.488,0.319,0.016,0.147,0.29,0.522,-4.707e-4,0,0,0,0,-0.002,0.019,16.129,204.317,83.794,-0.002,6.675,5.157,844.117,334.424,0.05,0.103
1.721,121.431,157.48,116.13,157.561,117.311,0.74,-2.519e-6,0.74,-1.951e-4,5.044,16.602,33,107,9.791,2.113,0,-0.007,3.785e-6,3.13e4,7974.019,29.84,0.109,244.905,215.703,1.811,0.472,3.451e7,4106.828,131.911,0.484,0.49,0.318,0.017,0.149,0.294,0.532,4.977e-4,0,0,0,0,-6.714e-4,0.019,16.129,204.317,83.618,-0.002,6.711,5.107,843.335,334.394,0.05,0.103
1.771,129.451,163.344,117.279,163.45,118.515,1.013,-6.866e-6,1.013,-3.883e-4,5.891,17.071,33,107,9.791,2.111,0,-3.353e-4,-1.72e-6,3.121e4,7884.63,29.742,0.109,244.974,215.414,1.833,0.49,3.577e7,4143.403,142.47,0.486,0.493,0.317,0.018,0.151,0.293,0.538,4.227e-4,0,0,0,0,-1.486e-6,0.02,16.129,204.317,83.553,-0.002,6.49,5.055,842.523,334.362,0.05,0.104
1.821,137.766,169.265,118.46,169.4,119.674,1.329,-1.211e-5,1.329,-5.218e-4,6.749,17.004,33,107,9.791,1.928,0,0.006,-4.253e-6,3.112e4,7794.424,29.642,0.109,245.651,215.121,1.893,0.508,3.705e7,4178.926,153.341,0.489,0.494,0.317,0.019,0.154,0.265,0.501,-3.847e-4,0,0,0,0,5.115e-4,0.021,16.129,204.317,83.609,-0.003,6.463,5.001,841.681,334.329,0.05,0.105
1.871,146.379,175.246,119.66,175.41,120.786,1.688,-1.842e-5,1.688,-6.251e-4,7.59,16.453,33,107,9.791,1.633,0,0.013,-1.73e-6,3.103e4,7703.496,29.542,0.109,246.743,214.824,1.979,0.526,3.834e7,4213.365,164.638,0.491,0.495,0.316,0.019,0.156,0.22,0.434,-1.136e-4,0,0,0,0,0.002,0.021,16.129,204.317,83.784,-0.003,6.458,4.945,840.809,334.296,0.05,0.106
1.921,155.292,181.285,120.872,181.479,121.847,2.088,-2.58e-5,2.088,-7.08e-4,8.392,15.382,33,107,9.791,1.211,0,0.019,-9.026e-6,3.094e4,7611.876,29.439,0.109,248.36,214.523,2.098,0.544,3.964e7,4246.666,176.435,0.494,0.496,0.315,0.02,0.158,0.159,0.329,1.336e-4,0,0,0,0,0.004,0.022,16.129,204.317,84.072,-0.003,6.569,4.887,839.907,334.26,0.05,0.107
1.971,164.509,187.385,122.064,187.607,122.855,2.526,-3.428e-5,2.526,-7.775e-4,9.126,13.919,33,107,9.791,0.717,-1.556e-8,0.023,-1.304e-5,3.085e4,7519.517,29.336,0.109,250.369,214.217,2.241,0.563,4.095e7,4278.803,188.937,0.497,0.497,0.314,0.021,0.161,0.091,0.198,-3.472e-4,0,0,0,0,0.005,0.023,16.129,204.317,84.451,-0.004,6.727,4.827,838.974,334.224,0.05,0.109
2.021,174.032,193.541,123.196,193.788,123.811,2.999,-4.413e-5,2.999,-8.432e-4,9.785,12.328,33,107,9.791,0.276,3.47e-8,0.025,-2.13e-5,3.075e4,7426.509,29.231,0.109,252.3,213.908,2.38,0.581,4.227e7,4309.748,202.292,0.5,0.5,0.314,0.022,0.164,0.034,0.075,-4.281e-4,0,0,0,0,0.006,0.024,16.129,204.317,84.888,-0.004,6.599,4.765,838.01,334.187,0.05,0.11
2.071,183.865,199.752,124.254,200.02,124.711,3.503,-5.546e-5,3.503,-9.07e-4,10.361,10.66,33,107,9.791,0.135,3.834e-8,-0.025,-6.288e-5,3.066e4,7332.884,29.124,0.109,253.019,213.594,2.444,0.6,4.359e7,4339.449,216.541,0.503,0.503,0.313,0.023,0.167,0.016,0.046,4.896e-5,0,0,0,0,-0.006,0.024,16.129,204.317,85.348,-0.004,6.382,4.701,837.015,334.148,0.05,0.112
2.121,194.009,206.012,125.233,206.298,125.552,4.034,-6.741e-5,4.034,-9.575e-4,10.854,8.949,33,107,9.791,0.515,0,-0.024,-1.113e-5,3.057e4,7238.606,29.017,0.108,251.515,213.277,2.371,0.619,4.491e7,4367.883,231.726,0.506,0.506,0.312,0.024,0.17,0.065,0.158,1.313e-4,0,0,0,0,-0.005,0.025,16.129,204.317,85.792,-0.002,6.176,4.635,835.989,334.108,0.05,0.113
2.171,204.467,212.319,126.126,212.617,126.332,4.587,-7.866e-5,4.587,-9.825e-4,11.258,7.205,33,107,9.791,0.903,-2.286e-8,-0.019,-6.163e-6,3.047e4,7143.757,28.908,0.108,250.069,212.955,2.301,0.638,4.625e7,4395.026,247.973,0.509,0.511,0.311,0.026,0.173,0.116,0.271,4.182e-4,0,0,0,0,-0.003,0.026,16.129,204.317,86.178,-1.391e-4,6.304,4.567,834.93,334.067,0.05,0.114
2.221,215.242,218.666,126.918,218.973,127.055,5.158,-8.735e-5,5.158,-9.702e-4,11.582,5.919,33,107,9.791,1.134,7.121e-9,-0.012,-4.907e-6,3.038e4,7048.374,28.798,0.108,249.301,212.63,2.274,0.657,4.759e7,4420.828,264.961,0.513,0.515,0.31,0.027,0.176,0.149,0.339,-7.676e-5,0,0,0,0,-0.001,0.027,16.129,204.317,86.46,0.002,6.313,4.497,833.839,334.024,0.05,0.115
2.271,226.334,225.05,127.608,225.362,127.723,5.745,-9.204e-5,5.745,-9.18e-4,11.863,5.415,33,107,9.791,1.15,0,-0.004,-2.102e-6,3.028e4,6952.428,28.686,0.108,249.373,212.301,2.298,0.676,4.893e7,4445.271,282.389,0.517,0.519,0.309,0.028,0.179,0.151,0.348,-2.201e-4,0,0,0,0,-1.033e-4,0.028,16.129,204.317,86.602,0.004,6.043,4.425,832.717,333.981,0.05,0.116
2.321,237.747,231.464,128.201,231.782,128.327,6.344,-9.136e-5,6.344,-8.25e-4,12.137,5.697,33,107,9.791,1.002,-1.251e-8,0.005,7.095e-6,3.018e4,6855.998,28.574,0.108,250.081,211.968,2.363,0.695,5.026e7,4468.334,300.35,0.521,0.523,0.308,0.03,0.183,0.131,0.308,-3.145e-4,0,0,0,0,1.363e-4,0.028,16.129,204.317,86.594,0.005,5.708,4.351,831.562,333.936,0.05,0.117
2.371,249.482,237.905,128.695,238.23,128.861,6.959,-8.522e-5,6.959,-7.016e-4,12.446,6.547,33,107,9.791,0.781,1.317e-8,0.012,-6.817e-6,3.009e4,6759.119,28.46,0.108,251.102,211.631,2.447,0.715,5.161e7,4489.971,319.146,0.525,0.526,0.307,0.032,0.186,0.1,0.245,2.274e-4,0,0,0,0,8.39e-4,0.029,16.129,204.317,86.444,0.004,5.587,4.275,830.374,333.889,0.05,0.118
2.421,261.538,244.366,129.089,244.701,129.318,7.59,-7.378e-5,7.59,-5.57e-4,12.802,7.697,33,107,9.791,0.575,0,0.018,9.696e-6,2.999e4,6661.775,28.345,0.108,252.103,211.291,2.53,0.734,5.296e7,4510.169,339.075,0.53,0.531,0.306,0.034,0.19,0.073,0.183,4.871e-4,0,0,0,0,0.002,0.03,16.129,204.317,86.176,0.003,5.991,4.196,829.153,333.842,0.05,0.119
2.471,273.919,250.843,129.366,251.192,129.7,8.24,-5.79e-5,8.24,-4.026e-4,13.226,9.295,33,107,9.791,0.304,7.822e-8,0.022,1.317e-5,2.989e4,6564.039,28.228,0.108,253.411,210.946,2.633,0.754,5.432e7,4528.912,360.035,0.535,0.535,0.305,0.036,0.194,0.038,0.097,-4.352e-4,0,0,0,0,0.003,0.031,16.129,204.317,85.813,0.001,6.464,4.116,827.9,333.793,0.05,0.12
2.521,286.623,257.33,129.514,257.697,130.003,8.914,-3.887e-5,8.914,-2.499e-4,13.74,11.26,33,107,9.791,0.032,1.756e-8,-0.023,1.276e-5,2.979e4,6465.944,28.111,0.107,254.785,210.599,2.74,0.773,5.567e7,4546.156,382.165,0.54,0.54,0.304,0.038,0.198,0.004,0.014,-7.847e-5,0,0,0,0,-0.003,0.032,16.129,204.317,85.4,-2.526e-4,6.801,4.033,826.615,333.743,0.05,0.12
2.571,299.652,263.82,129.52,264.21,130.227,9.616,-1.799e-5,9.616,-1.072e-4,14.36,13.55,33,107,9.79,0.442,7.434e-8,-0.021,-1.176e-5,2.969e4,6367.487,27.992,0.107,253.165,210.248,2.661,0.793,5.702e7,4561.894,405.638,0.546,0.546,0.303,0.041,0.202,0.056,0.15,-3.189e-4,0,0,0,0,-0.002,0.032,16.129,204.317,84.995,-7.046e-4,6.663,3.949,825.296,333.692,0.05,0.123
2.621,313.005,270.305,129.424,270.726,130.368,10.352,4.497e-6,10.352,2.489e-5,15.097,15.661,33,107,9.79,0.808,-1.328e-8,-0.013,7.374e-6,2.96e4,6268.732,27.873,0.107,251.827,209.893,2.6,0.813,5.835e7,4576.116,430.586,0.552,0.553,0.302,0.044,0.206,0.105,0.273,2.878e-4,0,0,0,0,-8.274e-4,0.033,16.129,204.317,84.684,-5.02e-4,6.17,3.862,823.944,333.639,0.05,0.124
2.671,326.649,275.446,102.591,275.898,103.545,11.124,2.835e-5,11.124,1.46e-4,15.787,14.025,33,107,9.79,0.931,-2.471e-8,-0.002,1.442e-5,2.951e4,6186.9,27.773,0.107,251.478,209.597,2.597,0.828,5.94e7,3792.446,451.131,0.558,0.559,0.301,0.047,0.209,0.122,0.316,1.636e-4,0,0,0,0,-1.743e-5,0.034,16.129,204.317,84.547,8.672e-5,5.963,3.773,822.563,333.585,0.05,0.125
2.718,339.573,277.642,46.917,278.113,47.652,11.871,5.271e-5,11.871,2.544e-4,16.19,8.338,33,107,9.79,0.833,-2.13e-8,0.009,-1.002e-5,2.947e4,6143.597,27.72,0.107,251.935,209.44,2.635,0.835,5.981e7,2146.661,459.593,0.56,0.561,0.301,0.049,0.211,0.108,0.285,2.601e-4,0,0,0,0,3.487e-4,0.034,16.129,204.317,84.608,6.976e-4,5.945,3.689,821.255,333.535,0.047,0.126
2.768,353.514,279.993,46.99,280.484,47.526,12.691,8.156e-5,12.691,3.682e-4,16.579,7.117,33,107,9.79,0.563,-5.258e-8,0.018,-1.331e-5,2.942e4,6097.168,27.663,0.107,253.114,209.271,2.718,0.842,6.025e7,2151.453,468.53,0.563,0.563,0.3,0.05,0.212,0.072,0.194,-3.511e-4,0,0,0,0,0.001,0.034,16.129,204.317,84.857,-1.113e-4,5.86,3.599,819.844,333.48,0.05,0.127
2.818,367.572,282.349,47.086,282.854,47.385,13.528,1.128e-4,13.528,4.777e-4,16.892,5.318,33,107,9.79,0.17,2.551e-8,0.023,-5.09e-5,2.938e4,6050.643,27.606,0.107,254.881,209.101,2.838,0.85,6.069e7,2156.019,477.775,0.566,0.566,0.3,0.052,0.214,0.021,0.057,-4.543e-4,0,0,0,0,0.002,0.035,16.129,204.317,85.238,-0.001,5.818,3.507,818.421,333.424,0.05,0.128
2.868,381.749,284.708,47.133,285.222,47.254,14.378,1.451e-4,14.378,5.78e-4,17.107,3.379,33,107,9.79,0.251,0,-0.022,-2.151e-5,2.933e4,6004.023,27.548,0.107,254.594,208.93,2.831,0.857,6.113e7,2160.19,487.703,0.569,0.569,0.299,0.054,0.215,0.031,0.091,4.124e-4,0,0,0,0,-0.002,0.035,16.129,204.317,85.655,-0.003,5.827,3.415,816.986,333.368,0.05,0.129
2.918,396.043,287.068,47.114,287.585,47.138,15.237,1.771e-4,15.237,6.661e-4,17.23,1.524,33,107,9.79,0.633,-4.724e-8,-0.016,8.114e-6,2.928e4,5957.324,27.49,0.107,253.035,208.759,2.745,0.864,6.156e7,2163.962,498.369,0.572,0.572,0.299,0.056,0.217,0.081,0.224,3.115e-5,0,0,0,0,-0.001,0.035,16.129,204.317,86.007,-0.004,6.037,3.322,815.539,333.312,0.05,0.129
2.968,410.456,289.425,47.017,289.939,47.018,16.1,2.078e-4,16.1,7.395e-4,17.263,0.308,33,107,9.79,0.871,2.186e-8,-0.004,-2.965e-6,2.924e4,5910.554,27.432,0.107,252.133,208.586,2.7,0.871,6.2e7,2167.33,509.377,0.575,0.576,0.299,0.058,0.219,0.114,0.307,-3.038e-4,0,0,0,0,-7.773e-5,0.035,16.129,204.317,86.195,-0.007,6.466,3.228,814.081,333.255,0.05,0.13
3.011,423.001,291.455,46.869,291.966,46.873,16.846,2.32e-4,16.846,7.891e-4,17.279,0.61,33,107,9.79,0.787,-8.538e-9,0.006,-1.777e-6,2.92e4,5870.094,27.382,0.107,252.533,208.437,2.734,0.878,6.237e7,2170.113,518.176,0.578,0.579,0.298,0.06,0.22,0.102,0.279,-8.353e-5,0,0,0,0,1.655e-4,0.036,16.129,204.317,86.177,-0.006,6.229,3.147,812.811,333.206,0.043,0.131
3.058,436.83,293.667,46.633,294.178,46.669,17.663,2.56e-4,17.663,8.303e-4,17.335,1.822,33,107,9.79,0.528,-1.524e-8,0.016,-1.815e-5,2.915e4,5825.777,27.327,0.107,253.674,208.272,2.815,0.884,6.276e7,2172.467,527.74,0.581,0.582,0.298,0.062,0.222,0.067,0.189,2.75e-4,0,0,0,0,0.001,0.036,16.129,204.317,85.98,-0.004,6.011,3.057,811.411,333.151,0.047,0.132
3.108,451.571,295.992,46.313,296.507,46.451,18.533,2.806e-4,18.533,8.674e-4,17.468,3.579,33,107,9.79,0.167,-3.231e-8,0.021,-1.929e-5,2.911e4,5778.846,27.268,0.107,255.315,208.098,2.927,0.891,6.318e7,2174.631,538.356,0.585,0.585,0.297,0.064,0.223,0.021,0.06,3.382e-4,0,0,0,0,0.002,0.036,16.129,204.317,85.636,9.922e-4,5.962,2.961,809.919,333.093,0.05,0.132
3.158,466.429,298.299,45.912,298.824,46.257,19.412,3.087e-4,19.412,9.111e-4,17.703,5.633,33,107,9.79,0.26,4.085e-8,-0.02,-1.099e-5,2.906e4,5731.877,27.209,0.106,254.976,207.923,2.917,0.898,6.359e7,2176.455,549.651,0.589,0.589,0.297,0.067,0.225,0.033,0.097,-2.393e-4,0,0,0,0,-0.002,0.037,16.129,204.317,85.251,0.007,5.654,2.865,808.415,333.035,0.05,0.133
3.208,481.383,299.867,31.23,300.404,31.725,20.303,3.457e-4,20.303,9.756e-4,17.957,5.579,33,107,9.79,0.479,-2.172e-8,-0.014,4.574e-6,2.902e4,5694.475,27.162,0.106,254.082,207.783,2.871,0.903,6.385e7,1756.242,555.974,0.59,0.59,0.296,0.068,0.226,0.061,0.176,-1.992e-5,0,0,0,0,-7.748e-4,0.037,16.129,204.317,84.938,0.011,6.043,2.767,806.902,332.976,0.05,0.134
3.258,496.366,299.473,-7.865,300.018,8.296,21.204,3.953e-4,21.204,0.001,18.081,2.637,33,107,9.79,0.598,8.376e-9,-0.005,-8.066e-7,2.901e4,5680.669,27.144,0.106,253.565,207.731,2.842,0.902,6.369e7,616.678,553.96,0.59,0.591,0.296,0.068,0.226,0.077,0.218,1.449e-4,0,0,0,0,-9.654e-5,0.037,16.129,204.317,84.767,0.013,6.161,2.67,805.385,332.917,0.05,0.134
3.308,511.33,299.081,-7.781,299.634,8.11,22.111,4.587e-4,22.111,0.001,18.207,2.287,33,107,9.79,0.517,-8.63e-9,0.004,-1.813e-5,2.899e4,5667.379,27.128,0.106,253.898,207.681,2.865,0.902,6.354e7,615.861,551.65,0.59,0.59,0.297,0.068,0.226,0.066,0.189,1.726e-4,0,0,0,0,7.033e-5,0.037,16.129,204.317,84.766,0.013,6.462,2.573,803.871,332.858,0.05,0.135
3.358,526.275,298.696,-7.607,299.256,7.754,23.024,5.348e-4,23.024,0.001,18.304,1.507,33,107,9.79,0.332,4.786e-8,0.011,1.315e-5,2.898e4,5654.08,27.111,0.106,254.686,207.631,2.917,0.901,6.338e7,616.243,549.19,0.59,0.59,0.297,0.068,0.225,0.042,0.121,7.972e-5,0,0,0,0,4.963e-4,0.037,16.129,204.317,84.914,0.01,6.549,2.476,802.358,332.799,0.05,0.136
3.408,541.2,298.321,-7.413,298.885,7.43,23.941,6.207e-4,23.941,0.001,18.354,0.504,33,107,9.79,0.085,-3.051e-8,0.015,5.298e-5,2.897e4,5640.774,27.094,0.106,255.771,207.581,2.988,0.9,6.322e7,616.564,546.566,0.59,0.59,0.297,0.068,0.225,0.011,0.031,-1.962e-5,0,0,0,0,8.521e-4,0.037,16.129,204.317,85.157,0.008,6.502,2.379,800.847,332.74,0.05,0.137
3.458,556.107,297.955,-7.219,298.52,7.249,24.859,7.141e-4,24.859,0.002,18.35,0.659,33,107,9.79,0.207,2.484e-8,-0.014,1.831e-5,2.895e4,5627.463,27.077,0.106,255.214,207.531,2.956,0.899,6.307e7,616.823,544.017,0.589,0.589,0.297,0.067,0.225,0.026,0.078,3.971e-4,0,0,0,0,-7.471e-4,0.037,16.129,204.317,85.421,0.006,6.636,2.282,799.339,332.682,0.05,0.137
3.508,570.996,297.599,-7.055,298.16,7.271,25.775,8.123e-4,25.775,0.002,18.284,1.756,33,107,9.79,0.475,3.179e-8,-0.008,-6.493e-7,2.894e4,5614.148,27.06,0.106,254.039,207.481,2.887,0.898,6.292e7,617.019,541.861,0.589,0.589,0.297,0.067,0.225,0.061,0.175,-2.22e-4,0,0,0,0,-2.421e-4,0.036,16.129,204.317,85.621,0.004,7.036,2.185,797.832,332.623,0.05,0.138
3.558,585.867,297.249,-6.953,297.805,7.195,26.687,9.135e-4,26.687,0.002,18.19,1.848,33,107,9.79,0.5,6.397e-9,1.18e-4,1.668e-5,2.893e4,5600.829,27.043,0.106,253.924,207.431,2.883,0.897,6.276e7,617.155,539.215,0.588,0.589,0.297,0.066,0.225,0.064,0.184,3.662e-4,0,0,0,0,5.548e-8,0.036,16.129,204.317,85.689,0.003,6.846,2.088,796.326,332.564,0.05,0.138
3.608,600.721,296.903,-6.891,297.455,7.009,27.594,0.001,27.594,0.002,18.11,1.283,33,107,9.79,0.367,2.563e-8,0.007,1.062e-6,2.891e4,5587.509,27.026,0.106,254.484,207.38,2.92,0.896,6.26e7,617.228,536.348,0.588,0.588,0.297,0.066,0.224,0.046,0.136,-1.858e-4,0,0,0,0,2.042e-4,0.036,16.129,204.317,85.617,0.004,6.558,1.992,794.829,332.506,0.05,0.139
3.658,615.557,296.56,-6.856,297.109,6.872,28.498,0.001,28.498,0.002,18.066,0.468,33,107,9.79,0.169,3.552e-8,0.012,5.478e-6,2.89e4,5574.189,27.01,0.106,255.345,207.33,2.977,0.895,6.246e7,617.24,533.658,0.587,0.587,0.297,0.066,0.224,0.021,0.062,1.894e-4,0,0,0,0,5.301e-4,0.036,16.129,204.317,85.441,0.003,6.45,1.895,793.401,332.447,0.05,0.14
3.708,630.377,296.217,-6.84,296.767,6.851,29.401,0.001,29.401,0.002,18.065,0.388,33,107,9.789,0.046,0,-0.012,1.722e-5,2.889e4,5560.87,26.993,0.106,255.892,207.28,3.014,0.894,6.231e7,617.189,531.185,0.587,0.587,0.297,0.065,0.224,0.006,0.017,2.643e-4,0,0,0,0,-6.232e-4,0.036,16.129,204.317,85.217,0.005,6.456,1.799,791.975,332.389,0.05,0.14
3.758,645.179,295.875,-6.824,296.429,6.91,30.305,0.001,30.305,0.003,18.103,1.082,33,107,9.789,0.219,5.823e-8,-0.01,-1.631e-5,2.887e4,5547.553,26.976,0.106,255.105,207.229,2.968,0.893,6.217e7,617.077,528.912,0.586,0.586,0.297,0.065,0.224,0.027,0.082,2.36e-4,0,0,0,0,-4.294e-4,0.036,16.129,204.317,85.007,0.009,6.581,1.703,790.55,332.331,0.05,0.141
3.808,659.964,295.534,-6.803,296.093,7.001,31.212,0.001,31.212,0.003,18.173,1.652,33,107,9.789,0.36,2.681e-8,-0.006,-1.723e-5,2.886e4,5534.24,26.959,0.106,254.482,207.179,2.933,0.893,6.203e7,616.903,526.642,0.586,0.586,0.297,0.065,0.224,0.045,0.134,2.706e-4,0,0,0,0,-1.28e-4,0.036,16.129,204.317,84.861,0.01,6.51,1.607,789.127,332.273,0.05,0.142
3.858,674.732,295.195,-6.753,295.759,7.018,32.123,0.002,32.123,0.003,18.265,1.911,33,107,9.789,0.423,1.693e-8,7.285e-4,-3.688e-6,2.885e4,5520.932,26.942,0.106,254.199,207.128,2.918,0.892,6.188e7,616.668,524.287,0.585,0.585,0.297,0.064,0.223,0.054,0.157,-4.852e-4,0,0,0,0,2.146e-6,0.036,16.129,204.317,84.818,0.009,6.294,1.511,787.705,332.214,0.05,0.143
3.908,689.484,294.859,-6.654,295.43,6.867,33.039,0.002,33.039,0.003,18.358,1.697,33,107,9.789,0.37,1.735e-8,0.007,-3.149e-6,2.883e4,5507.631,26.925,0.106,254.417,207.078,2.935,0.891,6.174e7,616.37,521.813,0.585,0.585,0.297,0.064,0.223,0.047,0.137,4.719e-4,0,0,0,0,2.105e-4,0.036,16.129,204.317,84.893,0.006,6.067,1.415,786.285,332.156,0.05,0.144
3.958,704.218,294.53,-6.505,295.106,6.564,33.959,0.002,33.959,0.003,18.424,0.873,33,107,9.789,0.162,-3.891e-8,0.012,-3.138e-5,2.882e4,5494.337,26.908,0.106,255.323,207.027,2.994,0.89,6.16e7,616.011,519.394,0.584,0.584,0.297,0.064,0.223,0.02,0.06,-1.154e-4,0,0,0,0,5.388e-4,0.036,16.129,204.317,85.069,0.003,6.163,1.319,784.867,332.098,0.05,0.144
4.008,718.937,294.208,-6.357,294.786,6.358,34.88,0.002,34.88,0.003,18.44,0.129,33,107,9.789,0.099,6.321e-8,-0.012,-7.587e-5,2.881e4,5481.052,26.891,0.106,255.601,206.977,3.015,0.889,6.146e7,615.591,517.195,0.584,0.584,0.298,0.063,0.223,0.012,0.038,-4.798e-4,0,0,0,0,-5.653e-4,0.036,16.129,204.317,85.287,0.002,6.36,1.223,783.45,332.04,0.05,0.145
4.058,733.639,293.893,-6.253,294.469,6.285,35.802,0.002,35.802,0.003,18.419,0.635,33,107,9.789,0.229,8.735e-9,-0.009,-2.264e-5,2.88e4,5467.778,26.874,0.106,255.011,206.926,2.981,0.888,6.132e7,615.109,514.891,0.583,0.583,0.298,0.063,0.223,0.029,0.086,-4.971e-4,0,0,0,0,-3.491e-4,0.036,16.129,204.317,85.481,0.001,6.01,1.128,782.035,331.982,0.05,0.146
4.108,748.326,293.582,-6.166,294.156,6.252,36.722,0.002,36.722,0.004,18.376,1.029,33,107,9.789,0.33,-1.14e-8,-0.005,-5.84e-6,2.878e4,5454.515,26.857,0.106,254.56,206.876,2.956,0.888,6.118e7,614.565,512.725,0.583,0.583,0.298,0.063,0.222,0.042,0.123,8.65e-5,0,0,0,0,-9.382e-5,0.036,16.129,204.317,85.608,0.003,5.89,1.032,780.622,331.924,0.05,0.146
4.158,762.994,293.155,-8.492,293.726,8.603,37.639,0.002,37.639,0.004,18.309,1.378,33,107,9.789,0.374,0,8.262e-4,4.563e-6,2.877e4,5443.708,26.843,0.106,254.356,206.835,2.946,0.886,6.102e7,544.388,510.039,0.582,0.583,0.298,0.062,0.222,0.047,0.14,1.353e-5,0,0,0,0,2.799e-6,0.036,16.129,204.317,85.643,0.006,5.967,0.937,779.21,331.867,0.05,0.147
4.17,766.38,292.886,-23.211,293.456,23.346,37.85,0.002,37.85,0.004,18.28,2.51,33,107,9.789,0.377,0,0.002,-1.116e-5,2.877e4,5442.177,26.841,0.106,254.336,206.829,2.945,0.886,6.094e7,118.224,508.6,0.582,0.582,0.298,0.062,0.222,0.048,0.14,-1.456e-4,0,0,0,0,2.187e-5,0.036,16.129,204.317,85.636,0.006,6.009,0.915,778.884,331.853,0.012,0.148
4.187,771.453,292.414,-27.224,292.982,27.365,38.167,0.002,38.167,0.004,18.232,2.776,33,107,9.789,0.367,0,0.004,-1.682e-5,2.877e4,5442.177,26.841,0.106,254.366,206.829,2.947,0.884,6.082e7,0,506.099,0.581,0.581,0.298,0.062,0.222,0.046,0.136,-2.841e-5,0,0,0,0,7.636e-5,0.036,16.129,204.317,85.615,0.008,6.072,0.882,778.396,331.833,0.017,0.154
4.213,779.046,291.707,-27.102,292.272,27.233,38.64,0.003,38.64,0.004,18.161,2.667,33,107,9.789,0.339,0,0.007,-2.207e-5,2.877e4,5442.177,26.841,0.106,254.467,206.829,2.954,0.882,6.064e7,0,502.399,0.58,0.58,0.298,0.061,0.221,0.043,0.126,2.578e-6,0,0,0,0,2.087e-4,0.036,16.129,204.317,85.562,0.009,6.216,0.833,777.665,331.803,0.026,0.155
4.252,790.402,290.654,-26.931,291.215,27.037,39.346,0.003,39.346,0.004,18.062,2.393,33,107,9.789,0.264,1.259e-8,0.011,-2.614e-5,2.877e4,5442.177,26.841,0.106,254.763,206.829,2.972,0.879,6.037e7,0,496.942,0.579,0.579,0.298,0.06,0.22,0.033,0.098,7.514e-6,0,0,0,0,4.807e-4,0.036,16.129,204.317,85.435,0.012,6.491,0.759,776.572,331.759,0.039,0.156
4.302,804.901,289.312,-26.742,289.869,26.797,40.247,0.003,40.247,0.004,17.959,1.716,33,107,9.789,0.072,2.033e-8,0.013,-1.037e-4,2.877e4,5442.177,26.841,0.106,255.58,206.829,3.023,0.875,6.002e7,0,490.008,0.577,0.577,0.298,0.059,0.22,0.009,0.026,-3.254e-4,0,0,0,0,7.352e-4,0.035,16.129,204.317,85.213,0.014,6.615,0.665,775.176,331.702,0.05,0.157
4.352,819.333,287.979,-26.578,288.535,26.594,41.143,0.003,41.143,0.004,17.894,0.911,33,107,9.789,0.164,6.226e-8,-0.012,-7.525e-5,2.877e4,5442.177,26.841,0.106,255.125,206.829,2.994,0.871,5.967e7,0,483.307,0.575,0.575,0.299,0.058,0.219,0.02,0.061,2.289e-4,0,0,0,0,-6.558e-4,0.035,16.129,204.317,84.976,0.014,6.564,0.571,773.787,331.645,0.05,0.158
4.402,833.699,286.655,-26.398,287.211,26.403,42.037,0.003,42.037,0.004,17.861,0.466,33,107,9.789,0.298,1.086e-8,-0.009,-2.645e-5,2.877e4,5442.177,26.841,0.106,254.497,206.829,2.955,0.868,5.933e7,0,476.934,0.573,0.574,0.299,0.057,0.218,0.037,0.111,-6.181e-5,0,0,0,0,-3.439e-4,0.035,16.129,204.317,84.78,0.012,6.803,0.477,772.404,331.588,0.05,0.158
4.452,847.999,285.339,-26.221,285.897,26.221,42.929,0.003,42.929,0.004,17.852,0.012,33,107,9.789,0.428,0,-0.003,-1.198e-5,2.877e4,5442.177,26.841,0.106,253.898,206.829,2.918,0.864,5.899e7,0,470.593,0.572,0.572,0.299,0.056,0.217,0.054,0.158,3.61e-4,0,0,0,0,-5.154e-5,0.035,16.129,204.317,84.667,0.01,6.612,0.384,771.028,331.532,0.05,0.159
4.502,862.233,284.034,-25.976,284.594,25.978,43.822,0.004,43.822,0.005,17.845,0.319,33,107,9.789,0.344,0,0.002,4.235e-6,2.877e4,5442.177,26.841,0.106,254.224,206.829,2.939,0.86,5.866e7,0,464.383,0.57,0.57,0.299,0.055,0.216,0.043,0.126,-2.684e-4,0,0,0,0,2.05e-5,0.035,16.129,204.317,84.659,0.008,6.992,0.292,769.658,331.476,0.05,0.16
4.552,876.402,282.741,-25.734,283.302,25.741,44.714,0.004,44.714,0.005,17.824,0.563,33,107,9.789,0.267,0,0.007,-1.498e-5,2.877e4,5442.177,26.841,0.106,254.521,206.829,2.957,0.856,5.833e7,0,458.15,0.568,0.569,0.3,0.054,0.215,0.033,0.098,1.25e-4,0,0,0,0,1.962e-4,0.035,16.129,204.317,84.743,0.007,6.865,0.2,768.294,331.42,0.05,0.161
4.602,890.507,281.461,-25.476,282.022,25.498,45.604,0.004,45.604,0.005,17.784,1.052,33,107,9.789,0.112,1.255e-8,0.009,-3.323e-5,2.877e4,5442.177,26.841,0.106,255.17,206.829,2.997,0.853,5.799e7,0,452.072,0.567,0.567,0.3,0.053,0.215,0.014,0.042,2.99e-4,0,0,0,0,3.934e-4,0.035,16.129,204.317,84.893,0.005,6.83,0.108,766.936,331.364,0.05,0.162
4.652,904.548,280.194,-25.213,280.753,25.274,46.491,0.004,46.491,0.005,17.713,1.754,33,107,9.789,0.114,2.866e-8,-0.009,-4.696e-5,2.877e4,5442.177,26.841,0.106,255.126,206.829,2.994,0.849,5.767e7,0,446.298,0.566,0.566,0.3,0.052,0.214,0.014,0.042,3.551e-4,0,0,0,0,-3.935e-4,0.034,16.129,204.317,85.068,0.005,7.051,0.017,765.585,331.309,0.05,0.163
4.702,918.527,278.939,-24.966,279.494,25.084,47.375,0.004,47.375,0.005,17.607,2.436,33,107.001,9.789,0.33,2.283e-8,-0.006,-2.777e-5,2.877e4,5442.177,26.841,0.106,254.138,206.829,2.933,0.845,5.735e7,0,440.82,0.564,0.564,0.3,0.051,0.213,0.041,0.121,-3.856e-4,0,0,0,0,-1.707e-4,0.034,16.129,204.317,85.212,0.006,7.404,-0.074,764.239,331.254,0.05,0.164
4.752,932.443,277.696,-24.766,278.246,24.889,48.252,0.004,48.252,0.005,17.483,2.466,33,107.001,9.789,0.353,5.597e-9,-0.001,-2.263e-5,2.877e4,5442.177,26.841,0.106,254.004,206.829,2.925,0.842,5.703e7,0,435.137,0.563,0.563,0.3,0.05,0.212,0.044,0.13,3.535e-4,0,0,0,0,-9.551e-6,0.034,16.129,204.317,85.28,0.009,7.178,-0.164,762.9,331.199,0.05,0.165
4.802,946.296,276.463,-24.579,277.007,24.696,49.123,0.005,49.123,0.005,17.359,2.401,33,107.001,9.788,0.341,0,0.003,-4.859e-6,2.877e4,5442.177,26.841,0.106,254.022,206.829,2.926,0.838,5.671e7,0,429.633,0.561,0.562,0.301,0.049,0.211,0.043,0.125,2.927e-4,0,0,0,0,5.34e-5,0.034,16.129,204.317,85.26,0.012,7.226,-0.255,761.566,331.145,0.05,0.166
4.852,960.089,275.237,-24.431,275.778,24.497,49.988,0.005,49.988,0.006,17.255,1.787,33,107.001,9.788,0.158,-7.443e-9,0.007,-2.777e-5,2.877e4,5442.177,26.841,0.106,254.789,206.829,2.974,0.834,5.638e7,0,423.963,0.56,0.56,0.301,0.049,0.211,0.02,0.058,-1.601e-5,0,0,0,0,2.088e-4,0.034,16.129,204.317,85.164,0.014,6.781,-0.344,760.239,331.09,0.05,0.167
4.902,973.82,274.02,-24.267,274.557,24.318,50.849,0.005,50.849,0.006,17.17,1.582,33,107.001,9.788,0.089,-1.188e-8,0.008,-6.048e-5,2.877e4,5442.177,26.841,0.106,255.06,206.829,2.99,0.831,5.607e7,0,418.762,0.559,0.559,0.301,0.048,0.21,0.011,0.033,4.903e-4,0,0,0,0,3.304e-4,0.034,16.129,204.317,85.025,0.016,7.112,-0.433,758.917,331.036,0.05,0.167
4.952,987.491,272.811,-24.105,273.346,24.146,51.705,0.005,51.705,0.006,17.095,1.413,33,107.001,9.788,0.029,-1.751e-8,0.009,-1.555e-4,2.877e4,5442.177,26.841,0.106,255.297,206.829,3.005,0.828,5.577e7,0,413.715,0.558,0.558,0.301,0.047,0.209,0.004,0.011,3.523e-6,0,0,0,0,4.028e-4,0.033,16.129,204.317,84.864,0.016,7.563,-0.522,757.601,330.982,0.05,0.168
5.002,1001.102,271.609,-23.975,272.143,23.991,52.559,0.005,52.559,0.006,17.039,0.888,33,107.001,9.788,0.145,2.997e-8,-0.008,-5.167e-5,2.877e4,5442.177,26.841,0.106,254.746,206.829,2.971,0.824,5.546e7,0,408.602,0.556,0.556,0.301,0.047,0.208,0.018,0.053,2.931e-4,0,0,0,0,-3.344e-4,0.033,16.129,204.317,84.702,0.014,7.437,-0.611,756.291,330.929,0.05,0.168
5.052,1014.652,270.414,-23.805,270.948,23.823,53.409,0.006,53.409,0.006,16.994,0.923,33,107.001,9.788,0.141,0,-0.007,-2.094e-5,2.877e4,5442.177,26.841,0.106,254.731,206.829,2.97,0.821,5.517e7,0,403.805,0.555,0.555,0.302,0.046,0.208,0.017,0.052,1.322e-4,0,0,0,0,-2.058e-4,0.033,16.129,204.317,84.568,0.01,8.048,-0.699,754.987,330.875,0.05,0.169
5.102,1028.143,269.228,-23.634,269.761,23.654,54.258,0.006,54.258,0.006,16.946,0.982,33,107.001,9.788,0.127,-7.737e-9,-0.005,-2.64e-6,2.877e4,5442.177,26.841,0.106,254.765,206.829,2.972,0.817,5.487e7,0,399.054,0.554,0.554,0.302,0.045,0.207,0.016,0.046,9.341e-5,0,0,0,0,-1.156e-4,0.033,16.129,204.317,84.466,0.005,8.54,-0.787,753.688,330.822,0.05,0.17
5.152,1041.575,268.049,-23.525,268.582,23.528,55.104,0.006,55.104,0.006,16.915,0.317,33,107.001,9.788,0.34,1.253e-8,-0.002,-3.218e-5,2.877e4,5442.177,26.841,0.106,253.792,206.829,2.912,0.814,5.455e7,0,394.07,0.553,0.553,0.302,0.045,0.206,0.043,0.124,3.614e-4,0,0,0,0,-1.498e-5,0.033,16.129,204.317,84.403,-2.948e-4,7.725,-0.874,752.395,330.769,0.05,0.171
5.202,1054.948,266.877,-23.347,267.412,23.351,55.95,0.006,55.95,0.006,16.897,0.448,33,107.001,9.788,0.296,0,0.002,-3.484e-5,2.877e4,5442.177,26.841,0.106,253.951,206.829,2.922,0.81,5.426e7,0,389.332,0.552,0.552,0.302,0.044,0.205,0.037,0.108,4.545e-4,0,0,0,0,2.36e-5,0.033,16.129,204.317,84.408,-0.005,7.838,-0.961,751.108,330.717,0.05,0.171
5.252,1068.263,265.715,-23.154,266.249,23.166,56.794,0.006,56.794,0.007,16.868,0.738,33,107.001,9.788,0.194,5.184e-9,0.005,-2.931e-5,2.877e4,5442.177,26.841,0.106,254.367,206.829,2.947,0.807,5.396e7,0,384.64,0.551,0.551,0.302,0.043,0.205,0.024,0.071,8.101e-7,0,0,0,0,1.368e-4,0.033,16.129,204.317,84.478,-0.006,7.917,-1.047,749.827,330.664,0.05,0.172
5.302,1081.52,264.562,-22.96,265.096,22.985,57.636,0.007,57.636,0.007,16.823,1.073,33,107.001,9.788,0.07,0,0.007,-9.135e-5,2.877e4,5442.177,26.841,0.106,254.89,206.829,2.98,0.804,5.367e7,0,380.024,0.55,0.55,0.303,0.043,0.204,0.009,0.025,-3.59e-5,0,0,0,0,2.335e-4,0.032,16.129,204.317,84.59,-0.003,7.917,-1.133,748.551,330.612,0.05,0.172
5.352,1094.719,263.418,-22.788,263.951,22.818,58.476,0.007,58.476,0.007,16.767,1.18,33,107.001,9.788,0.018,0,0.007,-2.54e-4,2.877e4,5442.177,26.841,0.106,255.086,206.829,2.992,0.8,5.337e7,0,375.384,0.549,0.549,0.303,0.042,0.203,0.002,0.007,-3.748e-5,0,0,0,0,2.8e-4,0.032,16.129,204.317,84.72,0.002,7.495,-1.219,747.28,330.56,0.05,0.173
5.402,1107.862,262.284,-22.59,262.814,22.655,59.312,0.007,59.312,0.007,16.693,1.715,33,107.001,9.788,0.18,1.736e-8,-0.006,-4.034e-5,2.877e4,5442.177,26.841,0.106,254.335,206.829,2.945,0.797,5.309e7,0,371.119,0.548,0.548,0.303,0.042,0.203,0.022,0.066,-4.243e-4,0,0,0,0,-2.037e-4,0.032,16.129,204.317,84.848,0.007,7.81,-1.305,746.055,330.508,0.05,0.173
5.452,1120.948,261.158,-22.456,261.686,22.501,60.145,0.007,60.145,0.007,16.615,1.423,33,107.001,9.788,0.094,3.338e-8,-0.005,-3.514e-5,2.877e4,5442.177,26.841,0.106,254.686,206.829,2.967,0.793,5.279e7,0,366.493,0.546,0.546,0.303,0.041,0.202,0.012,0.035,-2.153e-4,0,0,0,0,-1.198e-4,0.032,16.129,204.317,84.946,0.012,6.909,-1.39,744.858,330.457,0.05,0.176
5.502,1133.978,260.039,-22.279,260.564,22.353,60.974,0.007,60.974,0.007,16.533,1.823,33,107.001,9.788,0.244,1.305e-8,-0.003,-1.523e-5,2.877e4,5442.177,26.841,0.106,253.996,206.829,2.924,0.79,5.252e7,0,362.415,0.545,0.546,0.303,0.041,0.201,0.03,0.089,-6.154e-5,0,0,0,0,-3.892e-5,0.032,16.129,204.317,85.016,0.016,7.276,-1.474,743.666,330.405,0.05,0.178
5.552,1146.952,258.929,-22.12,259.451,22.212,61.798,0.008,61.798,0.007,16.436,2.016,33,107.001,9.788,0.318,7.383e-9,5.496e-4,-1.313e-5,2.877e4,5442.177,26.841,0.106,253.642,206.829,2.902,0.787,5.224e7,0,358.355,0.545,0.545,0.304,0.04,0.201,0.04,0.115,-1.072e-4,0,0,0,0,1.585e-6,0.032,16.129,204.317,85.036,0.019,7.514,-1.559,742.479,330.354,0.05,0.18
5.602,1159.871,257.827,-21.989,258.344,22.066,62.617,0.008,62.617,0.007,16.338,1.843,33,107.001,9.788,0.263,2.076e-8,0.004,-6.162e-6,2.877e4,5442.177,26.841,0.106,253.854,206.829,2.916,0.784,5.196e7,0,354.182,0.544,0.544,0.304,0.04,0.2,0.033,0.096,2.148e-4,0,0,0,0,8.006e-5,0.032,16.129,204.317,84.994,0.02,7.437,-1.643,741.297,330.303,0.05,0.182
5.652,1172.735,256.73,-21.866,257.244,21.926,63.432,0.008,63.432,0.007,16.251,1.625,33,107.001,9.788,0.185,0,0.006,-2.73e-5,2.877e4,5442.177,26.841,0.106,254.166,206.829,2.935,0.781,5.169e7,0,350.115,0.543,0.543,0.304,0.039,0.199,0.023,0.067,-4.01e-4,0,0,0,0,2.226e-4,0.031,16.129,204.317,84.899,0.019,7.5,-1.726,740.121,330.253,0.05,0.182
5.702,1185.544,255.64,-21.752,256.151,21.792,64.243,0.008,64.243,0.007,16.177,1.335,33,107.001,9.788,0.076,2.043e-8,0.008,-5.201e-5,2.877e4,5442.177,26.841,0.106,254.622,206.829,2.963,0.778,5.142e7,0,346.122,0.542,0.542,0.304,0.039,0.199,0.009,0.028,-1.126e-4,0,0,0,0,3.359e-4,0.031,16.129,204.317,84.767,0.017,7.573,-1.81,738.949,330.202,0.05,0.183
5.752,1198.299,254.555,-21.637,255.065,21.666,65.05,0.009,65.05,0.008,16.116,1.115,33,107.001,9.788,0.012,1.19e-8,-0.008,-2.067e-4,2.877e4,5442.177,26.841,0.106,254.883,206.829,2.979,0.774,5.115e7,0,342.262,0.541,0.541,0.304,0.039,0.198,0.001,0.004,3.406e-4,0,0,0,0,-3.741e-4,0.031,16.129,204.317,84.619,0.015,7.802,-1.893,737.782,330.152,0.05,0.184
5.802,1210.999,253.475,-21.556,253.985,21.563,65.855,0.009,65.855,0.008,16.076,0.526,33,107.001,9.788,0.236,3.245e-8,-0.007,-3.09e-5,2.877e4,5442.177,26.841,0.106,253.857,206.829,2.916,0.771,5.088e7,0,338.324,0.54,0.54,0.305,0.038,0.197,0.029,0.086,5.293e-5,0,0,0,0,-2.56e-4,0.031,16.129,204.317,84.479,0.011,7.35,-1.975,736.62,330.102,0.05,0.186
5.852,1223.646,252.401,-21.436,252.911,21.44,66.658,0.009,66.658,0.008,16.053,0.445,33,107.001,9.788,0.272,2.041e-8,-0.004,-1.562e-5,2.877e4,5442.177,26.841,0.106,253.676,206.829,2.905,0.768,5.061e7,0,334.602,0.539,0.539,0.305,0.038,0.197,0.034,0.098,-3.441e-4,0,0,0,0,-9.161e-5,0.031,16.129,204.317,84.38,0.008,7.569,-2.057,735.463,330.052,0.05,0.187
5.902,1236.24,251.332,-21.296,251.843,21.304,67.46,0.009,67.46,0.008,16.028,0.563,33,107.001,9.788,0.229,9.93e-9,-0.001,-4.756e-6,2.877e4,5442.177,26.841,0.106,253.834,206.829,2.914,0.765,5.035e7,0,330.93,0.538,0.538,0.305,0.037,0.196,0.028,0.083,-2.942e-4,0,0,0,0,-1.112e-5,0.031,16.129,204.317,84.333,0.006,7.899,-2.139,734.311,330.003,0.05,0.187
5.952,1248.78,250.27,-21.173,250.782,21.179,68.261,0.01,68.261,0.008,16.002,0.489,33,107.001,9.788,0.254,1.574e-8,0.001,-1.797e-5,2.877e4,5442.177,26.841,0.106,253.698,206.829,2.906,0.762,5.009e7,0,327.196,0.537,0.538,0.305,0.037,0.195,0.032,0.092,3.988e-4,0,0,0,0,8.174e-6,0.031,16.129,204.317,84.331,0.005,7.714,-2.221,733.164,329.953,0.05,0.188
6.002,1261.267,249.215,-21.034,249.727,21.042,69.06,0.01,69.06,0.008,15.975,0.591,33,107.001,9.788,0.21,1.441e-8,0.004,-1.482e-5,2.877e4,5442.177,26.841,0.106,253.865,206.829,2.916,0.759,4.983e7,0,323.517,0.537,0.537,0.305,0.037,0.195,0.026,0.075,-4.914e-4,0,0,0,0,7.599e-5,0.031,16.129,204.317,84.377,0.005,7.643,-2.302,732.022,329.904,0.05,0.189
6.052,1273.701,248.167,-20.897,248.679,20.907,69.858,0.01,69.858,0.008,15.944,0.676,33,107.001,9.787,0.168,1.15e-8,0.006,-2.284e-5,2.877e4,5442.177,26.841,0.106,254.023,206.829,2.926,0.756,4.956e7,0,319.846,0.536,0.536,0.305,0.036,0.194,0.021,0.06,-3.085e-4,0,0,0,0,1.809e-4,0.03,16.129,204.317,84.462,0.005,7.387,-2.383,730.884,329.855,0.05,0.189
6.102,1286.084,247.125,-20.765,247.637,20.777,70.655,0.01,70.655,0.008,15.91,0.7,33,107.001,9.787,0.146,5.17e-9,0.007,-9.368e-6,2.877e4,5442.177,26.841,0.106,254.091,206.829,2.93,0.752,4.93e7,0,316.175,0.535,0.535,0.306,0.036,0.194,0.018,0.052,-4.479e-4,0,0,0,0,3.064e-4,0.03,16.129,204.317,84.579,0.007,6.905,-2.463,729.752,329.806,0.05,0.19
6.152,1298.414,246.091,-20.604,246.602,20.635,71.449,0.011,71.449,0.008,15.864,1.132,33,107.001,9.787,0.041,1.046e-8,-0.008,-4.526e-5,2.877e4,5442.177,26.841,0.106,254.536,206.829,2.958,0.75,4.904e7,0,312.727,0.534,0.534,0.306,0.035,0.193,0.005,0.015,1.159e-4,0,0,0,0,-3.486e-4,0.03,16.129,204.317,84.718,0.011,7.079,-2.543,728.624,329.758,0.05,0.191
6.202,1310.693,245.064,-20.476,245.573,20.51,72.241,0.011,72.241,0.009,15.806,1.183,33,107.001,9.787,0.077,2.006e-8,-0.007,-8.598e-6,2.877e4,5442.177,26.841,0.106,254.347,206.829,2.946,0.746,4.878e7,0,309.174,0.533,0.533,0.306,0.035,0.192,0.009,0.028,-3.977e-4,0,0,0,0,-3.059e-4,0.03,16.129,204.317,84.853,0.014,6.602,-2.623,727.5,329.709,0.05,0.192
6.252,1322.92,244.045,-20.317,244.551,20.391,73.029,0.011,73.029,0.009,15.732,1.735,33,107.001,9.787,0.312,8.555e-9,-0.005,-3.553e-6,2.877e4,5442.177,26.841,0.106,253.292,206.829,2.881,0.744,4.854e7,0,306.02,0.533,0.533,0.306,0.035,0.192,0.039,0.112,-3.575e-4,0,0,0,0,-1.602e-4,0.03,16.129,204.317,84.968,0.018,7.111,-2.703,726.382,329.661,0.05,0.193
6.302,1335.097,243.032,-20.183,243.535,20.283,73.814,0.011,73.814,0.009,15.637,2.014,33,107.001,9.787,0.434,1.654e-8,-0.001,-1.915e-6,2.877e4,5442.177,26.841,0.106,252.747,206.829,2.847,0.741,4.829e7,0,302.839,0.532,0.532,0.306,0.034,0.191,0.054,0.155,3.371e-4,0,0,0,0,-1.295e-5,0.03,16.129,204.317,85.03,0.019,7.363,-2.782,725.268,329.613,0.05,0.193
6.352,1347.224,242.025,-20.089,242.524,20.159,74.593,0.012,74.593,0.009,15.544,1.682,33,107.001,9.787,0.309,2.104e-8,0.002,-4.384e-6,2.877e4,5442.177,26.841,0.106,253.255,206.829,2.878,0.738,4.804e7,0,299.327,0.531,0.531,0.306,0.034,0.191,0.038,0.11,-2.017e-4,0,0,0,0,2.611e-5,0.03,16.129,204.317,85.022,0.02,6.848,-2.861,724.158,329.565,0.05,0.194
6.402,1359.3,241.024,-19.98,241.519,20.048,75.368,0.012,75.368,0.009,15.461,1.647,33,107.001,9.787,0.297,1.634e-8,0.005,-6.433e-6,2.877e4,5442.177,26.841,0.106,253.283,206.829,2.88,0.735,4.779e7,0,296.141,0.531,0.531,0.307,0.034,0.19,0.037,0.106,7.025e-5,0,0,0,0,1.561e-4,0.03,16.129,204.317,84.956,0.019,7.074,-2.939,723.054,329.518,0.05,0.195
6.452,1371.326,240.027,-19.89,240.52,19.937,76.139,0.012,76.139,0.009,15.385,1.375,33,107.001,9.787,0.183,1.614e-8,0.007,-8.671e-6,2.877e4,5442.177,26.841,0.106,253.756,206.829,2.909,0.732,4.755e7,0,292.89,0.53,0.53,0.307,0.034,0.19,0.023,0.065,-4.271e-4,0,0,0,0,3.308e-4,0.029,16.129,204.317,84.842,0.019,7.051,-3.017,721.954,329.47,0.05,0.195
6.502,1383.303,239.035,-19.806,239.525,19.835,76.907,0.012,76.907,0.009,15.323,1.067,33,107.001,9.787,0.047,2.252e-8,0.009,-2.872e-5,2.877e4,5442.177,26.841,0.106,254.336,206.829,2.945,0.729,4.73e7,0,289.713,0.529,0.529,0.307,0.033,0.189,0.006,0.017,4.638e-4,0,0,0,0,4.448e-4,0.029,16.129,204.317,84.696,0.016,7.056,-3.095,720.858,329.423,0.05,0.196
6.552,1395.23,238.046,-19.758,238.536,19.762,77.672,0.013,77.672,0.009,15.288,0.385,33,107.001,9.787,0.254,0,-0.007,-1.82e-6,2.877e4,5442.177,26.841,0.106,253.395,206.829,2.887,0.726,4.705e7,0,286.479,0.528,0.528,0.307,0.033,0.188,0.031,0.091,-4.379e-4,0,0,0,0,-3.408e-4,0.029,16.129,204.317,84.548,0.014,6.346,-3.173,719.767,329.376,0.05,0.196
6.602,1407.107,237.06,-19.662,237.551,19.664,78.436,0.013,78.436,0.009,15.271,0.317,33,107.001,9.787,0.289,8.559e-9,-0.005,-2.653e-6,2.877e4,5442.177,26.841,0.106,253.219,206.829,2.876,0.723,4.681e7,0,283.497,0.528,0.528,0.307,0.033,0.188,0.036,0.103,-2.709e-4,0,0,0,0,-1.535e-4,0.029,16.129,204.317,84.437,0.013,6.608,-3.25,718.68,329.33,0.05,0.197
