# Time (s),Altitude (m),Vertical velocity (m/s),Vertical acceleration (m/s²),Total velocity (m/s),Total acceleration (m/s²),Position East of launch (m),Position North of launch (m),Lateral distance (m),Lateral direction (°),Lateral velocity (m/s),Lateral acceleration (m/s²),Latitude (°),Longitude (°),Gravitational acceleration (m/s²),Angle of attack (°),Roll rate (r/s),Pitch rate (r/s),Yaw rate (r/s),Mass (g),Motor mass (g),Longitudinal moment of inertia (kg·m²),Rotational moment of inertia (kg·m²),CP location (cm),CG location (cm),Stability margin calibers (​),Mach number (​),Reynolds number (​),Thrust (N),Drag force (N),Drag coefficient (​),Axial drag coefficient (​),Friction drag coefficient (​),Pressure drag coefficient (​),Base drag coefficient (​),Normal force coefficient (​),Pitch moment coefficient (​),Yaw moment coefficient (​),Side force coefficient (​),Roll moment coefficient (​),Roll forcing coefficient (​),Roll damping coefficient (​),Pitch damping coefficient (​),Coriolis acceleration (m/s²),Reference length (cm),Reference area (cm²),Vertical orientation (zenith) (°),Lateral orientation (azimuth) (°),Wind velocity (m/s),Air temperature (°C),Air pressure (mbar),Speed of sound (m/s),Simulation time step (s),Computation time (s)
0.01,1.319e-4,0.026,2.639,0.026,2.639,0,0,0,0,0,0,28.61,-80.6,9.792,89.205,0,0,0,3.222e4,1.099e4,36.211,0.1,NaN,231.243,NaN,0.006,4.828e5,400.605,1.899e-7,0.63,4.197e-6,0.501,0.009,0.12,NaN,NaN,NaN,NaN,NaN,NaN,NaN,NaN,3.378e-6,16.129,204.317,90,0,1.901,15,1013.25,340.389,0.01,0.002
0.02,0.002,0.301,27.509,0.301,27.509,0,0,0,0,0,0,28.61,-80.6,9.792,81.113,0,0,0,3.222e4,1.099e4,36.204,0.1,NaN,231.224,NaN,0.006,4.954e5,1201.794,2.549e-4,0.627,0.005,0.498,0.009,0.12,NaN,NaN,NaN,NaN,NaN,NaN,NaN,NaN,3.859e-5,16.129,204.317,90,0,1.928,15,1013.25,340.389,0.01,0.003
0.03,0.007,0.825,52.388,0.825,52.388,0,0,0,0,0,0,28.61,-80.6,9.792,67.106,0,0,0,3.221e4,1.098e4,36.198,0.1,NaN,231.206,NaN,0.006,5.386e5,2002.983,0.004,0.619,0.076,0.489,0.009,0.12,NaN,NaN,NaN,NaN,NaN,NaN,NaN,NaN,1.057e-4,16.129,204.317,90,0,1.954,15,1013.249,340.389,0.01,0.004
0.04,0.019,1.475,64.973,1.475,64.973,0,0,0,0,0,0,28.61,-80.6,9.792,53.327,0,0,0,3.22e4,1.097e4,36.186,0.1,NaN,231.168,NaN,0.007,6.27e5,2407.436,0.019,0.603,0.248,0.474,0.009,0.12,NaN,NaN,NaN,NaN,NaN,NaN,NaN,NaN,1.888e-4,16.129,204.317,90,0,1.981,15,1013.248,340.389,0.01,0.004
0.05,0.037,2.127,65.241,2.127,65.241,0,0,0,0,0,0,28.61,-80.6,9.792,43.337,0,0,0,3.219e4,1.096e4,36.173,0.1,NaN,231.13,NaN,0.009,7.426e5,2415.154,0.044,0.587,0.415,0.458,0.009,0.12,NaN,NaN,NaN,NaN,NaN,NaN,NaN,NaN,2.723e-4,16.129,204.317,90,0,2.007,15,1013.246,340.389,0.01,0.005
0.06,0.061,2.782,65.509,2.782,65.509,0,0,0,0,0,0,28.61,-80.6,9.792,35.295,0,0,0,3.217e4,1.094e4,36.16,0.1,NaN,231.093,NaN,0.01,8.655e5,2422.871,0.08,0.573,0.549,0.444,0.009,0.12,NaN,NaN,NaN,NaN,NaN,NaN,NaN,NaN,3.562e-4,16.129,204.317,90,0,1.969,15,1013.243,340.389,0.01,0.006
0.07,0.093,3.44,65.777,3.44,65.777,0,0,0,0,0,0,28.61,-80.6,9.792,29.319,0,0,0,3.216e4,1.093e4,36.148,0.1,NaN,231.055,NaN,0.012,1.002e6,2430.572,0.123,0.56,0.63,0.431,0.009,0.12,NaN,NaN,NaN,NaN,NaN,NaN,NaN,NaN,4.404e-4,16.129,204.317,90,0,1.932,14.999,1013.239,340.389,0.01,0.006
0.08,0.13,4.1,66.044,4.1,66.044,0,0,0,0,0,0,28.61,-80.6,9.792,24.796,0,0,0,3.215e4,1.092e4,36.135,0.1,NaN,231.017,NaN,0.013,1.147e6,2438.256,0.171,0.549,0.672,0.42,0.009,0.12,NaN,NaN,NaN,NaN,NaN,NaN,NaN,NaN,5.249e-4,16.129,204.317,90,0,1.894,14.999,1013.235,340.388,0.01,0.007
0.09,0.175,4.763,66.312,4.763,66.312,0,0,0,0,0,0,28.61,-80.6,9.792,21.295,0,0,0,3.214e4,1.091e4,36.122,0.1,NaN,230.979,NaN,0.015,1.298e6,2445.941,0.225,0.539,0.687,0.41,0.009,0.12,NaN,NaN,NaN,NaN,NaN,NaN,NaN,NaN,6.098e-4,16.129,204.317,90,0,1.856,14.999,1013.23,340.388,0.01,0.007
0.1,0.226,5.429,66.579,5.429,66.579,0,0,0,0,0,0,28.61,-80.6,9.792,18.523,0,0,0,3.212e4,1.089e4,36.109,0.1,NaN,230.941,NaN,0.017,1.454e6,2453.607,0.282,0.53,0.688,0.401,0.009,0.12,NaN,NaN,NaN,NaN,NaN,NaN,NaN,NaN,6.951e-4,16.129,204.317,90,0,1.819,14.999,1013.224,340.388,0.01,0.008
0.11,0.283,6.097,66.846,6.097,66.846,0,0,0,0,0,0,28.61,-80.6,9.792,16.755,0,0,0,3.211e4,1.088e4,36.096,0.1,NaN,230.902,NaN,0.019,1.617e6,2461.256,0.344,0.522,0.679,0.393,0.009,0.12,NaN,NaN,NaN,NaN,NaN,NaN,NaN,NaN,7.806e-4,16.129,204.317,90,0,1.835,14.998,1013.217,340.388,0.01,0.008
0.12,0.347,6.768,67.113,6.768,67.113,0,0,0,0,0,0,28.61,-80.6,9.792,15.305,0,0,0,3.21e4,1.087e4,36.083,0.1,NaN,230.864,NaN,0.021,1.782e6,2468.905,0.41,0.515,0.665,0.386,0.009,0.12,NaN,NaN,NaN,NaN,NaN,NaN,NaN,NaN,8.665e-4,16.129,204.317,90,0,1.852,14.998,1013.209,340.388,0.01,0.009
0.13,0.419,7.442,67.379,7.442,67.379,0,0,0,0,0,0,28.61,-80.6,9.792,14.097,0,0,0,3.209e4,1.085e4,36.07,0.1,NaN,230.825,NaN,0.023,1.948e6,2476.536,0.479,0.509,0.65,0.379,0.009,0.12,NaN,NaN,NaN,NaN,NaN,NaN,NaN,NaN,9.528e-4,16.129,204.317,90,0,1.869,14.997,1013.201,340.387,0.01,0.009
0.14,0.496,8.118,67.645,8.118,67.645,0,0,0,0,0,0,28.61,-80.6,9.792,13.076,0,0,0,3.207e4,1.084e4,36.057,0.1,NaN,230.786,NaN,0.024,2.116e6,2484.148,0.551,0.503,0.633,0.373,0.009,0.12,NaN,NaN,NaN,NaN,NaN,NaN,NaN,NaN,0.001,16.129,204.317,90,0,1.885,14.997,1013.192,340.387,0.01,0.01
0.15,0.581,8.797,67.912,8.797,67.912,0,0,0,0,0,0,28.61,-80.6,9.792,12.201,0,0,0,3.206e4,1.083e4,36.044,0.1,NaN,230.747,NaN,0.026,2.285e6,2491.76,0.627,0.498,0.618,0.368,0.009,0.12,NaN,NaN,NaN,NaN,NaN,NaN,NaN,NaN,0.001,16.129,204.317,90,0,1.902,14.996,1013.182,340.387,0.01,0.01
0.16,0.672,9.478,68.178,9.478,68.178,0,0,0,0,0,0,28.61,-80.6,9.792,11.243,0,0,0,3.205e4,1.082e4,36.031,0.1,NaN,230.708,NaN,0.028,2.454e6,2499.353,0.703,0.493,0.602,0.363,0.009,0.12,NaN,NaN,NaN,NaN,NaN,NaN,NaN,NaN,0.001,16.129,204.317,90,0,1.884,14.996,1013.171,340.386,0.01,0.011
0.17,0.77,10.163,68.444,10.163,68.444,0,0,0,0,0,0,28.61,-80.6,9.792,10.405,0,0,0,3.203e4,1.08e4,36.018,0.1,NaN,230.668,NaN,0.03,2.623e6,2506.926,0.783,0.489,0.586,0.359,0.009,0.12,NaN,NaN,NaN,NaN,NaN,NaN,NaN,NaN,0.001,16.129,204.317,90,0,1.866,14.995,1013.16,340.386,0.01,0.011
0.18,0.874,10.839,68.707,10.839,68.707,0,0,0,0,0,0,28.61,-80.6,9.792,9.678,0,0,0,3.202e4,1.079e4,36.005,0.1,NaN,230.63,NaN,0.032,2.792e6,2514.439,0.866,0.485,0.572,0.355,0.009,0.12,NaN,NaN,NaN,NaN,NaN,NaN,NaN,NaN,0.001,16.129,204.317,90,0,1.848,14.994,1013.148,340.385,0.01,0.012
0.189,0.977,11.475,68.959,11.475,68.959,0,0,0,0,0,0,28.61,-80.6,9.792,9.07,0,0,0,3.201e4,1.078e4,35.993,0.1,NaN,230.593,NaN,0.034,2.95e6,2521.64,0.947,0.481,0.561,0.352,0.009,0.12,NaN,NaN,NaN,NaN,NaN,NaN,NaN,NaN,0.001,16.129,204.317,90,0,1.832,14.994,1013.135,340.385,0.009,0.012
0.198,1.079,12.078,69.196,12.078,69.196,0,0,0,0,0,0,28.61,-80.6,9.792,8.552,0,0,0,3.2e4,1.077e4,35.981,0.1,NaN,230.558,NaN,0.036,3.101e6,2528.397,1.027,0.478,0.55,0.348,0.009,0.12,NaN,NaN,NaN,NaN,NaN,NaN,NaN,NaN,0.002,16.129,204.317,90,0,1.816,14.993,1013.123,340.385,0.009,0.012
0.211,1.243,12.986,69.491,12.986,69.491,-8.71e-6,0,8.71e-6,-180,0.001,0.105,28.61,-80.6,9.792,7.963,0,9.557e-6,0,3.198e4,1.075e4,35.963,0.1,236.105,230.506,0.347,0.039,3.329e6,2536.603,1.163,0.476,0.54,0.346,0.01,0.12,1.538,0.533,-3.26e-4,0,0,0,0,2.108e-7,0.002,16.129,204.317,90,0,1.818,14.992,1013.104,340.384,0.013,0.013
0.23,1.511,14.356,69.932,14.356,69.932,-5.572e-5,0,5.572e-5,-180,0.003,0.112,28.61,-80.6,9.792,7.244,0,2.826e-5,0,3.195e4,1.072e4,35.937,0.1,237.387,230.427,0.431,0.043,3.674e6,2548.866,1.391,0.475,0.531,0.345,0.01,0.12,1.352,0.583,-1.696e-4,0,0,0,0,1.513e-6,0.002,16.129,204.317,90,-8.594e-4,1.828,14.99,1013.073,340.383,0.02,0.014
0.26,1.964,16.431,70.593,16.431,70.593,-2.082e-4,0,2.082e-4,-180,0.007,0.123,28.61,-80.6,9.792,6.366,0,6.652e-5,-8.212e-9,3.191e4,1.068e4,35.897,0.1,239.089,230.308,0.544,0.049,4.197e6,2567.195,1.776,0.474,0.519,0.344,0.01,0.12,1.136,0.618,-3.042e-4,0,0,0,0,6.423e-6,0.002,16.129,204.317,89.999,-0.005,1.84,14.987,1013.02,340.381,0.029,0.014
0.304,2.758,19.584,71.579,19.584,71.579,-6.389e-4,0,6.389e-4,-180,0.013,0.136,28.61,-80.6,9.792,5.341,0,1.477e-4,8.37e-9,3.185e4,1.062e4,35.836,0.1,241.293,230.127,0.692,0.058,4.994e6,2594.515,2.452,0.473,0.506,0.343,0.01,0.12,0.903,0.626,-4.783e-4,0,0,0,0,2.236e-5,0.003,16.129,204.317,89.998,-0.009,1.845,14.982,1012.926,340.378,0.044,0.015
0.354,3.828,23.221,72.816,23.221,72.816,-0.001,-7.313e-9,0.001,-180,0.02,0.146,28.61,-80.6,9.792,4.429,0,2.75e-4,1.214e-7,3.179e4,1.056e4,35.766,0.1,243.485,229.917,0.841,0.068,5.912e6,2629.174,3.367,0.472,0.496,0.342,0.01,0.121,0.712,0.599,4.243e-4,0,0,0,0,5.53e-5,0.003,16.129,204.317,89.994,-0.017,1.821,14.975,1012.801,340.374,0.05,0.015
0.404,5.082,26.923,74.111,26.923,74.111,-0.003,-2.288e-8,0.003,-179.999,0.027,0.148,28.61,-80.6,9.792,3.682,0,4.384e-4,9.144e-8,3.172e4,1.049e4,35.695,0.1,245.47,229.704,0.977,0.079,6.848e6,2665.605,4.448,0.472,0.489,0.341,0.01,0.121,0.566,0.553,-3.964e-4,0,0,0,0,1.047e-4,0.003,16.129,204.317,89.988,-0.018,1.765,14.967,1012.654,340.369,0.05,0.016
0.454,6.522,30.689,75.393,30.689,75.394,-0.004,-5.827e-8,0.004,-179.999,0.035,0.167,28.61,-80.6,9.792,3.453,0,6.439e-4,1.046e-7,3.165e4,1.042e4,35.622,0.099,246.122,229.488,1.031,0.09,7.803e6,2701.592,5.747,0.471,0.486,0.34,0.01,0.121,0.524,0.539,-2.204e-4,0,0,0,0,1.74e-4,0.004,16.129,204.317,89.978,-0.018,1.898,14.958,1012.485,340.363,0.05,0.016
0.504,8.152,34.518,76.665,34.518,76.665,-0.006,-1.277e-7,0.006,-179.999,0.043,0.151,28.61,-80.6,9.792,2.899,0,8.906e-4,1.282e-7,3.158e4,1.034e4,35.548,0.099,247.766,229.267,1.147,0.102,8.771e6,2737.111,7.193,0.471,0.482,0.339,0.01,0.121,0.425,0.487,1.778e-4,0,0,0,0,2.634e-4,0.004,16.129,204.317,89.964,-0.017,1.813,14.947,1012.294,340.357,0.05,0.017
0.554,9.976,38.411,77.922,38.411,77.922,-0.008,-2.462e-7,0.008,-179.998,0.05,0.142,28.61,-80.6,9.792,2.612,0,0.001,3.906e-7,3.15e4,1.027e4,35.473,0.099,248.671,229.043,1.217,0.113,9.756e6,2772.143,8.86,0.47,0.479,0.339,0.01,0.122,0.376,0.457,-3.528e-4,0,0,0,0,3.7e-4,0.005,16.129,204.317,89.946,-0.015,1.839,14.935,1012.08,340.35,0.05,0.017
0.604,11.995,42.365,79.164,42.365,79.164,-0.011,-4.292e-7,0.011,-179.998,0.057,0.132,28.61,-80.6,9.792,2.436,0,0.002,6.022e-7,3.143e4,1.02e4,35.397,0.099,249.245,228.814,1.267,0.125,1.076e7,2806.655,10.744,0.47,0.478,0.338,0.01,0.122,0.347,0.438,-2.585e-4,0,0,0,0,5.008e-4,0.005,16.129,204.317,89.922,-0.014,1.918,14.922,1011.843,340.342,0.05,0.018
0.654,14.214,46.381,80.39,46.381,80.39,-0.014,-7.023e-7,0.014,-179.997,0.063,0.093,28.61,-80.6,9.792,2.152,0,0.002,6.059e-7,3.136e4,1.013e4,35.319,0.099,250.198,228.582,1.34,0.136,1.177e7,2840.623,12.823,0.47,0.476,0.338,0.01,0.122,0.301,0.402,-1.544e-4,0,0,0,0,6.521e-4,0.006,16.129,204.317,89.891,-0.015,1.894,14.908,1011.583,340.333,0.05,0.018
0.704,16.635,50.458,81.6,50.458,81.6,-0.017,-1.103e-6,0.017,-179.996,0.067,0.053,28.61,-80.6,9.792,1.994,0,0.002,2.895e-7,3.128e4,1.005e4,35.24,0.099,250.752,228.346,1.389,0.148,1.28e7,2874.029,15.143,0.47,0.475,0.337,0.01,0.123,0.276,0.382,-3.189e-4,0,0,0,0,8.239e-4,0.006,16.129,204.317,89.854,-0.014,1.952,14.892,1011.299,340.323,0.05,0.019
0.754,19.261,54.594,82.791,54.594,82.791,-0.021,-1.675e-6,0.021,-179.995,0.067,0.015,28.61,-80.6,9.792,1.77,0,0.003,6.892e-8,3.121e4,9975.197,35.16,0.099,251.55,228.106,1.454,0.161,1.385e7,2906.84,17.681,0.47,0.474,0.336,0.01,0.123,0.241,0.35,-2.302e-4,0,0,0,0,0.001,0.007,16.129,204.317,89.808,-0.014,1.938,14.875,1010.991,340.313,0.05,0.019
0.804,22.095,58.788,83.963,58.788,83.964,-0.024,-2.46e-6,0.024,-179.994,0.064,0.106,28.61,-80.6,9.792,1.553,0,0.003,6.998e-8,3.113e4,9898.744,35.078,0.099,252.352,227.863,1.518,0.173,1.491e7,2939.033,20.458,0.47,0.474,0.336,0.01,0.124,0.208,0.315,-3.089e-4,0,0,0,0,0.001,0.008,16.129,204.317,89.754,-0.012,1.911,14.856,1010.659,340.302,0.05,0.02
0.854,25.141,63.041,85.115,63.041,85.116,-0.027,-3.488e-6,0.027,-179.993,0.056,0.212,28.61,-80.6,9.792,1.375,0,0.004,5.426e-7,3.105e4,9821.464,34.996,0.099,253.032,227.615,1.576,0.185,1.598e7,2970.592,23.491,0.47,0.473,0.335,0.011,0.124,0.182,0.285,2.111e-4,0,0,0,0,0.001,0.008,16.129,204.317,89.691,-0.011,1.909,14.837,1010.301,340.29,0.05,0.02
0.904,28.401,67.349,86.245,67.349,86.245,-0.03,-4.8e-6,0.03,-179.991,0.043,0.322,28.61,-80.6,9.792,1.281,0,0.004,1.107e-6,3.097e4,9743.413,34.912,0.099,253.407,227.364,1.615,0.198,1.707e7,3001.483,26.801,0.471,0.473,0.335,0.011,0.125,0.169,0.271,-3.807e-4,0,0,0,0,0.002,0.009,16.129,204.317,89.619,-0.011,1.997,14.815,1009.919,340.277,0.05,0.021
0.954,31.877,71.714,87.351,71.714,87.352,-0.031,-6.465e-6,0.031,-179.988,0.023,0.468,28.61,-80.6,9.792,1.143,0,0.005,1.298e-6,3.09e4,9664.55,34.826,0.098,253.959,227.109,1.665,0.211,1.817e7,3031.685,30.37,0.471,0.473,0.334,0.011,0.126,0.149,0.246,-1.479e-4,0,0,0,0,0.002,0.009,16.129,204.317,89.536,-0.012,2.035,14.793,1009.511,340.263,0.05,0.021
1.004,35.573,76.132,88.434,76.132,88.436,-0.032,-8.59e-6,0.032,-179.985,0.004,0.637,28.61,-80.6,9.792,1.015,0,0.005,1.368e-6,3.082e4,9584.915,34.74,0.098,254.482,226.849,1.713,0.224,1.929e7,3061.183,34.219,0.472,0.473,0.334,0.011,0.127,0.131,0.223,2.37e-4,0,0,0,0,0.002,0.01,16.129,204.317,89.443,-0.013,2.085,14.769,1009.078,340.249,0.05,0.021
1.054,39.492,80.604,89.49,80.604,89.495,-0.031,-1.131e-5,0.031,-179.979,0.042,0.87,28.61,-80.6,9.792,0.789,0,0.006,6.131e-7,3.074e4,9504.561,34.652,0.098,255.42,226.587,1.788,0.237,2.041e7,3089.944,38.333,0.472,0.473,0.334,0.011,0.127,0.1,0.177,-6.195e-5,0,0,0,0,0.002,0.01,16.129,204.317,89.339,-0.012,1.997,14.743,1008.618,340.233,0.05,0.022
1.104,43.635,85.127,90.52,85.127,90.527,-0.027,-1.471e-5,0.027,-179.969,0.092,1.119,28.61,-80.6,9.792,0.607,0,0.007,4.286e-8,3.065e4,9423.455,34.563,0.098,256.201,226.32,1.853,0.25,2.155e7,3117.947,42.757,0.473,0.473,0.333,0.011,0.128,0.076,0.139,4.359e-4,0,0,0,0,0.002,0.011,16.129,204.317,89.226,-0.011,1.96,14.716,1008.132,340.217,0.05,0.022
1.154,48.006,89.7,91.521,89.7,91.531,-0.021,-1.882e-5,0.021,-179.949,0.155,1.386,28.61,-80.6,9.792,0.455,0,0.007,7.101e-8,3.057e4,9341.636,34.473,0.098,256.877,226.05,1.911,0.264,2.27e7,3145.181,47.497,0.473,0.474,0.333,0.012,0.129,0.056,0.106,-3.766e-4,0,0,0,0,0.002,0.011,16.129,204.317,89.105,-0.009,1.959,14.688,1007.62,340.2,0.05,0.023
1.204,52.606,94.322,92.491,94.322,92.506,-0.012,-2.359e-5,0.012,-179.884,0.232,1.671,28.61,-80.6,9.792,0.323,0,0.007,-2.72e-7,3.049e4,9259.157,34.382,0.098,257.48,225.776,1.966,0.277,2.386e7,3171.612,52.558,0.474,0.474,0.332,0.012,0.13,0.04,0.076,3.499e-4,0,0,0,0,0.002,0.012,16.129,204.317,88.976,-0.007,1.987,14.658,1007.08,340.182,0.05,0.023
1.254,57.439,98.991,93.431,98.992,93.451,0.002,-2.895e-5,0.002,-0.77,0.323,1.958,28.61,-80.6,9.792,0.237,0,0.008,2.045e-6,3.041e4,9175.99,34.289,0.098,257.893,225.498,2.008,0.291,2.503e7,3197.222,57.955,0.475,0.475,0.332,0.012,0.131,0.029,0.056,4.947e-4,0,0,0,0,0.002,0.013,16.129,204.317,88.841,-0.006,2.089,14.627,1006.513,340.163,0.05,0.024
1.304,62.506,103.706,94.337,103.707,94.366,0.021,-3.482e-5,0.021,-0.095,0.43,2.309,28.61,-80.6,9.792,0.066,0,0.008,4.568e-6,3.032e4,9092.174,34.196,0.098,258.702,225.217,2.076,0.305,2.622e7,3222,63.681,0.476,0.476,0.331,0.012,0.132,0.008,0.015,-9.655e-5,0,0,0,0,0.002,0.013,16.129,204.317,88.703,-0.005,2.037,14.594,1005.919,340.143,0.05,0.024
1.354,67.811,108.464,95.209,108.465,95.247,0.045,-4.117e-5,0.045,-0.052,0.555,2.687,28.61,-80.6,9.792,0.114,0,-0.008,3.505e-6,3.024e4,9007.76,34.101,0.098,258.511,224.931,2.082,0.319,2.741e7,3245.915,69.762,0.477,0.477,0.331,0.013,0.133,0.014,0.03,-2.315e-4,0,0,0,0,-0.002,0.014,16.129,204.317,88.563,-0.004,1.949,14.559,1005.297,340.122,0.05,0.025
1.404,73.354,113.264,96.046,113.267,96.094,0.077,-4.793e-5,0.077,-0.036,0.699,3.049,28.61,-80.6,9.792,0.241,0,-0.007,-4.287e-7,3.015e4,8922.728,34.005,0.098,257.976,224.643,2.067,0.333,2.861e7,3268.95,76.208,0.478,0.478,0.33,0.013,0.134,0.029,0.063,2.852e-4,0,0,0,0,-0.002,0.015,16.129,204.317,88.426,-0.003,1.937,14.523,1004.647,340.1,0.05,0.025
1.454,79.138,118.105,96.847,118.108,96.907,0.116,-5.499e-5,0.116,-0.027,0.861,3.393,28.61,-80.6,9.792,0.331,0,-0.007,3.966e-6,3.007e4,8837.115,33.907,0.097,257.613,224.35,2.062,0.347,2.982e7,3291.096,83.021,0.479,0.479,0.33,0.013,0.136,0.041,0.086,-3.336e-4,0,0,0,0,-0.001,0.015,16.129,204.317,88.296,-0.002,1.971,14.486,1003.968,340.077,0.05,0.026
1.504,85.165,122.984,97.609,122.989,97.683,0.163,-6.222e-5,0.163,-0.022,1.041,3.783,28.61,-80.6,9.792,0.485,0,-0.006,-3.213e-7,2.998e4,8750.973,33.809,0.097,256.98,224.054,2.041,0.362,3.104e7,3312.324,90.222,0.48,0.48,0.329,0.014,0.137,0.06,0.125,-1.525e-4,0,0,0,0,-0.001,0.016,16.129,204.317,88.176,-0.001,1.834,14.446,1003.262,340.053,0.05,0.026
1.554,91.437,127.9,98.336,127.906,98.421,0.22,-6.934e-5,0.22,-0.018,1.238,4.089,28.61,-80.6,9.792,0.547,0,-0.005,-1.222e-6,2.99e4,8664.285,33.71,0.097,256.755,223.755,2.046,0.376,3.226e7,3332.618,97.796,0.481,0.482,0.329,0.014,0.138,0.069,0.14,4.639e-4,0,0,0,0,-6.75e-4,0.016,16.129,204.317,88.072,-1.447e-4,1.846,14.406,1002.526,340.029,0.05,0.027
1.604,97.956,132.85,99.025,132.858,99.121,0.287,-7.616e-5,0.287,-0.015,1.45,4.361,28.61,-80.6,9.792,0.599,0,-0.004,1.303e-6,2.981e4,8577.091,33.609,0.097,256.574,223.452,2.054,0.391,3.349e7,3351.973,105.761,0.482,0.483,0.328,0.014,0.14,0.075,0.155,-6.815e-5,0,0,0,0,-3.738e-4,0.017,16.129,204.317,87.987,-1.737e-5,1.827,14.363,1001.761,340.003,0.05,0.027
1.654,104.723,137.833,99.678,137.843,99.781,0.365,-8.26e-5,0.365,-0.013,1.674,4.529,28.61,-80.6,9.792,0.584,0,-0.003,1.4e-6,2.972e4,8489.437,33.507,0.097,256.682,223.145,2.079,0.406,3.473e7,3370.36,114.103,0.484,0.484,0.328,0.015,0.141,0.073,0.153,-2.83e-4,0,0,0,0,-1.562e-4,0.018,16.129,204.317,87.926,3.799e-5,1.911,14.319,1000.968,339.976,0.05,0.028
1.704,111.74,142.847,100.293,142.86,100.399,0.455,-8.861e-5,0.455,-0.011,1.903,4.607,28.61,-80.6,9.792,0.531,0,-0.001,3.4e-6,2.963e4,8401.315,33.404,0.097,256.956,222.836,2.115,0.42,3.598e7,3387.765,122.839,0.485,0.486,0.327,0.015,0.143,0.067,0.14,1.2e-4,0,0,0,0,-3.573e-5,0.018,16.129,204.317,87.889,4.074e-4,2.037,14.274,1000.145,339.949,0.05,0.028
1.754,119.009,147.89,100.869,147.905,100.976,0.556,-9.412e-5,0.556,-0.01,2.134,4.629,28.61,-80.6,9.792,0.476,0,-5.666e-6,-1.526e-6,2.954e4,8312.764,33.3,0.097,257.24,222.522,2.152,0.435,3.723e7,3404.187,131.987,0.487,0.487,0.326,0.016,0.145,0.059,0.128,1.634e-4,0,0,0,0,0,0.019,16.129,204.317,87.877,-2.303e-4,2.117,14.226,999.292,339.92,0.05,0.029
1.804,126.53,152.96,101.401,152.978,101.508,0.668,-9.918e-5,0.668,-0.009,2.368,4.673,28.61,-80.6,9.792,0.485,0,0.001,-5.94e-7,2.945e4,8223.828,33.195,0.097,257.254,222.206,2.173,0.45,3.848e7,3419.598,141.57,0.489,0.489,0.326,0.016,0.146,0.061,0.132,4.108e-4,0,0,0,0,3.409e-5,0.02,16.129,204.317,87.89,-8.944e-4,1.972,14.178,998.41,339.89,0.05,0.029
1.854,134.305,158.054,101.896,158.076,101.995,0.792,-1.039e-4,0.792,-0.008,2.598,4.509,28.61,-80.6,9.792,0.374,0,0.003,3.97e-7,2.937e4,8134.504,33.089,0.096,257.79,221.886,2.226,0.465,3.974e7,3433.986,151.55,0.49,0.49,0.325,0.017,0.148,0.046,0.103,-2.001e-4,0,0,0,0,1.222e-4,0.02,16.129,204.317,87.928,-0.001,2.089,14.127,997.498,339.86,0.05,0.03
1.904,142.336,163.172,102.347,163.196,102.437,0.928,-1.086e-4,0.928,-0.007,2.819,4.305,28.61,-80.6,9.792,0.279,0,0.004,-1.161e-6,2.928e4,8044.831,32.982,0.096,258.263,221.563,2.275,0.48,4.1e7,3447.354,161.975,0.492,0.492,0.325,0.017,0.15,0.034,0.078,-1.771e-4,0,0,0,0,2.267e-4,0.021,16.129,204.317,87.989,-0.001,2.116,14.075,996.556,339.828,0.05,0.03
1.954,150.623,168.31,102.753,168.337,102.831,1.074,-1.129e-4,1.074,-0.006,3.028,4.021,28.61,-80.6,9.792,0.166,0,0.005,-1.749e-6,2.919e4,7954.851,32.874,0.096,258.831,221.237,2.331,0.496,4.227e7,3459.675,172.849,0.494,0.494,0.324,0.018,0.152,0.02,0.046,-3.649e-4,0,0,0,0,3.118e-4,0.022,16.129,204.317,88.067,-0.001,2.168,14.021,995.584,339.796,0.05,0.031
2.004,159.167,173.466,103.109,173.496,103.177,1.23,-1.17e-4,1.23,-0.005,3.223,3.767,28.61,-80.6,9.792,0.101,5.512e-9,0.005,-4.116e-6,2.91e4,7864.567,32.765,0.096,259.187,220.908,2.373,0.511,4.353e7,3470.94,184.18,0.496,0.496,0.323,0.019,0.154,0.012,0.029,-7.648e-5,0,0,0,0,3.653e-4,0.022,16.129,204.317,88.157,-0.001,2.054,13.965,994.582,339.762,0.05,0.032
2.054,167.97,178.638,103.419,178.671,103.474,1.396,-1.208e-4,1.396,-0.005,3.402,3.375,28.61,-80.6,9.792,0.033,-1.072e-8,-0.005,1.115e-5,2.901e4,7774.016,32.655,0.096,259.563,220.575,2.417,0.526,4.48e7,3481.154,195.989,0.498,0.498,0.323,0.019,0.156,0.004,0.01,-3.81e-4,0,0,0,0,-3.592e-4,0.023,16.129,204.317,88.254,-0.002,2.151,13.908,993.55,339.727,0.05,0.033
2.104,177.032,183.824,103.674,183.858,103.721,1.57,-1.246e-4,1.57,-0.005,3.564,3.12,28.61,-80.6,9.792,0.073,0,-0.005,-3.705e-6,2.891e4,7683.237,32.544,0.096,259.456,220.24,2.431,0.541,4.607e7,3490.292,208.25,0.5,0.5,0.322,0.02,0.158,0.009,0.021,-2.178e-4,0,0,0,0,-3.103e-4,0.024,16.129,204.317,88.349,-0.003,1.968,13.849,992.487,339.692,0.05,0.033
2.154,186.353,189.019,103.88,189.056,103.915,1.752,-1.284e-4,1.752,-0.004,3.71,2.718,28.61,-80.6,9.792,0.194,0,-0.004,-2.359e-6,2.882e4,7592.241,32.433,0.096,258.982,219.902,2.423,0.557,4.734e7,3498.349,221.026,0.503,0.503,0.321,0.021,0.16,0.024,0.058,2.468e-4,0,0,0,0,-2.207e-4,0.024,16.129,204.317,88.436,-0.002,2.092,13.789,991.394,339.655,0.05,0.034
2.204,195.934,194.223,104.031,194.261,104.058,1.941,-1.321e-4,1.941,-0.004,3.837,2.368,28.61,-80.6,9.792,0.289,0,-0.003,4.233e-6,2.873e4,7501.063,32.32,0.096,258.633,219.561,2.422,0.572,4.861e7,3505.333,234.292,0.505,0.505,0.321,0.022,0.163,0.036,0.087,-1.489e-4,0,0,0,0,-1.033e-4,0.025,16.129,204.317,88.505,-0.003,2.216,13.726,990.27,339.617,0.05,0.034
2.254,205.775,199.432,104.124,199.472,104.148,2.136,-1.358e-4,2.136,-0.004,3.952,2.24,28.61,-80.6,9.792,0.296,0,-0.001,-4.707e-6,2.864e4,7409.738,32.206,0.096,258.693,219.218,2.447,0.588,4.987e7,3511.22,247.998,0.507,0.508,0.32,0.022,0.165,0.037,0.09,3.401e-4,0,0,0,0,-2.136e-5,0.026,16.129,204.317,88.547,-0.005,2.139,13.662,989.116,339.578,0.05,0.035
2.304,215.877,204.644,104.16,204.684,104.183,2.336,-1.401e-4,2.336,-0.003,4.063,2.219,28.61,-80.6,9.792,0.281,0,3.133e-4,-5.856e-6,2.855e4,7318.283,32.092,0.095,258.852,218.871,2.479,0.603,5.113e7,3516.008,262.185,0.51,0.51,0.319,0.023,0.167,0.035,0.086,2.709e-4,0,0,0,0,9.291e-7,0.026,16.129,204.317,88.557,-0.007,2.098,13.597,987.931,339.539,0.05,0.035
2.354,226.24,209.854,104.139,209.896,104.164,2.542,-1.456e-4,2.542,-0.003,4.175,2.304,28.61,-80.6,9.792,0.248,0,0.002,6.339e-6,2.846e4,7226.732,31.977,0.095,259.095,218.522,2.516,0.618,5.239e7,3519.708,276.862,0.513,0.513,0.319,0.024,0.17,0.031,0.077,-4.976e-4,0,0,0,0,3.763e-5,0.027,16.129,204.317,88.535,-0.008,2.101,13.529,986.716,339.498,0.05,0.036
2.404,236.862,215.062,104.06,215.105,104.088,2.754,-1.523e-4,2.754,-0.003,4.293,2.423,28.61,-80.6,9.791,0.229,8.389e-9,0.004,1.512e-5,2.837e4,7135.117,31.861,0.095,259.284,218.171,2.549,0.634,5.365e7,3522.299,292.06,0.515,0.516,0.318,0.025,0.172,0.028,0.072,1.022e-4,0,0,0,0,1.206e-4,0.028,16.129,204.317,88.483,-0.009,2.265,13.46,985.47,339.456,0.05,0.036
2.454,247.746,220.263,103.917,220.307,103.956,2.972,-1.604e-4,2.972,-0.003,4.424,2.825,28.61,-80.6,9.791,0.123,9.577e-9,0.005,6.442e-6,2.827e4,7043.46,31.744,0.095,259.873,217.817,2.607,0.649,5.49e7,3523.782,307.712,0.518,0.518,0.317,0.026,0.175,0.015,0.04,-2.482e-4,0,0,0,0,2.085e-4,0.028,16.129,204.317,88.402,-0.006,2.189,13.39,984.194,339.413,0.05,0.037
2.504,258.889,225.454,103.714,225.5,103.766,3.196,-1.694e-4,3.196,-0.003,4.576,3.261,28.61,-80.6,9.791,0.025,6.033e-9,0.006,-1.49e-5,2.818e4,6951.795,31.626,0.095,260.433,217.461,2.664,0.665,5.614e7,3524.169,323.901,0.521,0.521,0.316,0.027,0.177,0.003,0.007,-1.679e-5,0,0,0,0,2.466e-4,0.029,16.129,204.317,88.305,-0.002,2.19,13.317,982.887,339.369,0.05,0.037
2.554,270.291,230.632,103.451,230.681,103.516,3.43,-1.78e-4,3.43,-0.003,4.749,3.666,28.61,-80.6,9.791,0.052,0,-0.006,-1.659e-6,2.809e4,6860.148,31.508,0.095,260.431,217.102,2.686,0.68,5.738e7,3523.443,340.628,0.525,0.525,0.316,0.029,0.18,0.006,0.018,-1.718e-4,0,0,0,0,-2.263e-4,0.03,16.129,204.317,88.204,0.004,2.272,13.243,981.549,339.324,0.05,0.038
2.604,281.952,235.795,103.124,235.847,103.207,3.672,-1.84e-4,3.672,-0.003,4.945,4.144,28.61,-80.6,9.791,0.152,7.682e-9,-0.005,-1.099e-5,2.8e4,6768.549,31.389,0.095,260.084,216.742,2.687,0.695,5.861e7,3521.608,357.88,0.528,0.528,0.315,0.03,0.183,0.019,0.051,-2.876e-4,0,0,0,0,-1.475e-4,0.03,16.129,204.317,88.112,0.009,2.195,13.167,980.182,339.278,0.05,0.038
2.654,293.87,240.939,102.741,240.995,102.837,3.924,-1.853e-4,3.924,-0.003,5.161,4.451,28.61,-80.6,9.791,0.204,-7.886e-9,-0.003,6.304e-6,2.791e4,6677.027,31.27,0.095,259.965,216.379,2.702,0.711,5.983e7,3518.679,375.666,0.531,0.531,0.314,0.031,0.186,0.025,0.068,-3.23e-4,0,0,0,0,-5.515e-5,0.031,16.129,204.317,88.045,0.012,2.199,13.09,978.784,339.231,0.05,0.039
2.704,306.045,246.062,102.301,246.121,102.406,4.188,-1.808e-4,4.188,-0.002,5.389,4.627,28.61,-80.6,9.791,0.235,0,-5.93e-4,1.129e-5,2.782e4,6585.607,31.15,0.094,259.952,216.014,2.724,0.726,6.105e7,3514.641,393.972,0.535,0.535,0.313,0.033,0.188,0.029,0.079,2.58e-4,0,0,0,0,-2.302e-6,0.032,16.129,204.317,88.014,0.015,2.131,13.011,977.356,339.183,0.05,0.039
2.754,318.476,251.16,101.81,251.223,101.91,4.463,-1.688e-4,4.463,-0.002,5.618,4.507,28.61,-80.6,9.791,0.201,0,0.002,4.601e-6,2.773e4,6494.323,31.029,0.094,260.234,215.648,2.764,0.741,6.225e7,3509.5,412.797,0.538,0.539,0.313,0.035,0.191,0.025,0.069,-3.914e-4,0,0,0,0,1.933e-5,0.032,16.129,204.317,88.025,0.018,2.16,12.93,975.898,339.134,0.05,0.039
2.804,331.161,256.231,101.266,256.298,101.349,4.75,-1.482e-4,4.75,-0.002,5.834,4.111,28.61,-80.6,9.791,0.114,0,0.004,1.685e-5,2.763e4,6403.204,30.908,0.094,260.768,215.279,2.82,0.756,6.345e7,3503.276,432.168,0.542,0.542,0.312,0.036,0.194,0.014,0.04,-3.076e-4,0,0,0,0,7.405e-5,0.033,16.129,204.317,88.074,0.019,2.275,12.847,974.41,339.084,0.05,0.04
2.854,344.098,261.273,100.654,261.343,100.726,5.046,-1.191e-4,5.046,-0.001,6.032,3.806,28.61,-80.6,9.791,0.073,0,0.005,1.317e-5,2.754e4,6312.268,30.786,0.094,261.096,214.909,2.864,0.771,6.463e7,3495.955,452.089,0.546,0.546,0.311,0.038,0.197,0.009,0.025,-3.666e-4,0,0,0,0,1.258e-4,0.033,16.129,204.317,88.149,0.016,2.081,12.763,972.893,339.033,0.05,0.04
2.904,357.287,266.281,99.983,266.354,100.034,5.352,-8.276e-5,5.352,-8.859e-4,6.207,3.212,28.61,-80.6,9.791,0.036,5.93e-9,-0.005,2.686e-5,2.745e4,6221.556,30.664,0.094,261.387,214.538,2.905,0.786,6.58e7,3487.546,472.633,0.551,0.551,0.31,0.04,0.2,0.004,0.013,-4.475e-4,0,0,0,0,-1.323e-4,0.034,16.129,204.317,88.237,0.011,2.164,12.678,971.346,338.982,0.05,0.041
2.954,370.726,271.253,99.241,271.328,99.277,5.667,-4.277e-5,5.667,-4.324e-4,6.353,2.673,28.61,-80.6,9.791,0.124,-7.847e-9,-0.004,2.115e-5,2.736e4,6131.094,30.542,0.094,261.119,214.165,2.911,0.801,6.695e7,3478.071,493.805,0.555,0.555,0.309,0.042,0.203,0.015,0.045,4.727e-4,0,0,0,0,-7.796e-5,0.035,16.129,204.317,88.317,-0.002,2.217,12.59,969.77,338.929,0.05,0.041
3.004,384.412,276.186,98.427,276.262,98.452,5.987,-3.834e-6,5.987,-3.669e-5,6.473,2.225,28.61,-80.6,9.791,0.198,-5.701e-9,-0.001,1.879e-5,2.727e4,6040.895,30.419,0.094,260.921,213.791,2.922,0.815,6.81e7,3467.521,515.642,0.56,0.56,0.308,0.045,0.206,0.025,0.073,1.265e-4,0,0,0,0,-1.107e-5,0.035,16.129,204.317,88.365,-0.012,2.374,12.501,968.165,338.875,0.05,0.042
3.054,398.343,281.074,97.53,281.151,97.557,6.314,2.992e-5,6.314,2.715e-4,6.584,2.279,28.61,-80.6,9.791,0.171,0,0.001,1.844e-5,2.718e4,5951.007,30.295,0.094,261.186,213.415,2.962,0.83,6.922e7,3455.906,538.064,0.565,0.565,0.308,0.048,0.21,0.021,0.063,-2.547e-4,0,0,0,0,7.817e-6,0.036,16.129,204.317,88.366,-0.017,2.275,12.411,966.531,338.82,0.05,0.042
3.104,412.518,285.915,96.556,285.993,96.589,6.646,5.649e-5,6.646,4.87e-4,6.703,2.531,28.61,-80.6,9.791,0.122,-9.823e-9,0.004,4.05e-6,2.709e4,5861.452,30.172,0.094,261.562,213.039,3.008,0.844,7.034e7,3443.25,561.22,0.57,0.57,0.307,0.051,0.213,0.015,0.045,1.655e-4,0,0,0,0,6.139e-5,0.037,16.129,204.317,88.321,-0.015,2.286,12.319,964.869,338.764,0.05,0.043
3.154,426.933,290.693,95.277,290.773,95.325,6.984,7.591e-5,6.984,6.227e-4,6.841,3.019,28.61,-80.6,9.791,0.035,-1.383e-8,0.005,5.392e-5,2.7e4,5773.395,30.049,0.093,262.132,212.666,3.067,0.859,7.143e7,3423.628,585.111,0.576,0.576,0.306,0.054,0.216,0.004,0.013,-1.698e-4,0,0,0,0,1.078e-4,0.037,16.129,204.317,88.243,-0.012,2.246,12.225,963.178,338.707,0.05,0.043
3.204,441.547,293.834,62.605,293.916,62.651,7.329,9.003e-5,7.329,7.038e-4,6.952,2.405,28.61,-80.6,9.791,0.023,-1.972e-8,-0.005,9.302e-5,2.694e4,5705.997,29.955,0.093,262.224,212.379,3.09,0.868,7.212e7,2552.497,601.237,0.58,0.58,0.305,0.057,0.218,0.003,0.009,-4.783e-4,0,0,0,0,-1.098e-4,0.038,16.129,204.317,88.154,-0.006,2.392,12.13,961.464,338.65,0.05,0.044
3.254,456.304,296.473,52.58,296.557,52.636,7.679,1.022e-4,7.679,7.622e-4,7.066,2.437,28.61,-80.6,9.791,0.077,-2.19e-8,-0.004,3.3e-5,2.688e4,5646.364,29.872,0.093,262.079,212.124,3.097,0.876,7.268e7,2292.77,615.099,0.584,0.584,0.305,0.059,0.22,0.01,0.03,-9.557e-5,0,0,0,0,-7.304e-5,0.038,16.129,204.317,88.072,0.005,2.504,12.034,959.733,338.592,0.05,0.044
3.304,471.193,299.077,51.887,299.164,51.962,8.036,1.17e-4,8.036,8.341e-4,7.198,2.802,28.61,-80.6,9.791,0.142,-9.146e-9,-0.002,-1.809e-6,2.682e4,5586.927,29.788,0.093,261.864,211.868,3.1,0.884,7.323e7,2284.916,629.181,0.588,0.588,0.304,0.062,0.222,0.018,0.055,2.117e-4,0,0,0,0,-1.785e-5,0.038,16.129,204.317,88.017,0.01,2.403,11.937,957.987,338.533,0.05,0.045
3.354,486.211,301.646,51.17,301.735,51.254,8.399,1.367e-4,8.399,9.327e-4,7.343,2.924,28.61,-80.6,9.791,0.165,-9.007e-9,8.997e-4,1.047e-5,2.676e4,5527.714,29.704,0.093,261.832,211.613,3.114,0.892,7.376e7,2276.534,643.508,0.592,0.592,0.304,0.064,0.223,0.021,0.064,-3.425e-4,0,0,0,0,3.526e-6,0.039,16.129,204.317,88.007,0.007,2.27,11.84,956.226,338.474,0.05,0.045
3.404,501.357,304.178,50.436,304.27,50.502,8.77,1.602e-4,8.77,0.001,7.482,2.581,28.61,-80.6,9.791,0.11,-1.581e-8,0.003,-2.46e-5,2.67e4,5468.735,29.62,0.093,262.171,211.357,3.15,0.899,7.429e7,2267.637,658.122,0.596,0.596,0.303,0.067,0.225,0.014,0.044,4.061e-4,0,0,0,0,5.205e-5,0.039,16.129,204.317,88.049,0.001,2.293,11.741,954.457,338.414,0.05,0.046
3.454,516.628,306.676,49.841,306.77,49.884,9.147,1.848e-4,9.147,0.001,7.598,2.074,28.61,-80.6,9.791,0.031,-1.973e-8,0.005,-9.7e-5,2.664e4,5409.992,29.536,0.093,262.596,211.102,3.193,0.907,7.481e7,2258.221,668.568,0.596,0.596,0.302,0.067,0.227,0.004,0.013,1.809e-4,0,0,0,0,9.955e-5,0.039,16.129,204.317,88.128,-0.009,2.267,11.642,952.751,338.354,0.05,0.047
3.504,532.024,309.143,49.24,309.239,49.269,9.53,2.05e-4,9.53,0.001,7.691,1.667,28.61,-80.6,9.791,0.025,0,-0.005,-1.552e-4,2.658e4,5351.514,29.453,0.093,262.823,210.846,3.223,0.914,7.533e7,2248.294,678.422,0.597,0.597,0.301,0.067,0.229,0.003,0.01,-1.552e-4,0,0,0,0,-1.032e-4,0.04,16.129,204.317,88.219,-0.023,2.06,11.542,951.03,338.293,0.05,0.047
3.554,547.542,311.58,48.623,311.677,48.635,9.916,2.141e-4,9.916,0.001,7.758,1.079,28.61,-80.6,9.791,0.114,-7.553e-9,-0.003,-1.298e-5,2.652e4,5293.31,29.369,0.093,262.42,210.59,3.213,0.922,7.583e7,2237.868,688.268,0.597,0.597,0.3,0.066,0.23,0.014,0.046,-4.661e-4,0,0,0,0,-4.942e-5,0.04,16.129,204.317,88.298,-0.038,2.138,11.441,949.297,338.232,0.05,0.049
3.604,563.181,313.985,47.976,314.082,47.984,10.305,2.065e-4,10.305,0.001,7.803,0.828,28.61,-80.6,9.79,0.146,-1.024e-8,-7.149e-4,1.178e-5,2.647e4,5235.379,29.285,0.093,262.35,210.335,3.225,0.929,7.632e7,2226.941,698.013,0.597,0.597,0.299,0.066,0.232,0.018,0.059,1.775e-4,0,0,0,0,-2.055e-6,0.04,16.129,204.317,88.337,-0.046,2.13,11.339,947.549,338.171,0.05,0.049
3.654,578.94,316.356,47.301,316.453,47.312,10.696,1.8e-4,10.696,9.643e-4,7.847,0.995,28.61,-80.6,9.79,0.113,0,0.002,5.671e-6,2.641e4,5177.754,29.202,0.093,262.594,210.079,3.256,0.936,7.681e7,2215.522,707.621,0.597,0.597,0.298,0.065,0.234,0.014,0.046,4.847e-4,0,0,0,0,1.626e-5,0.041,16.129,204.317,88.322,-0.04,2.047,11.237,945.789,338.108,0.05,0.05
3.704,594.792,317.732,27.441,317.829,27.451,11.089,1.394e-4,11.089,7.2e-4,7.874,0.709,28.61,-80.6,9.79,0.067,0,0.004,-2.527e-5,2.636e4,5133.674,29.138,0.093,262.861,209.883,3.285,0.94,7.705e7,1694.563,712.784,0.597,0.597,0.297,0.065,0.235,0.008,0.027,-2.688e-4,0,0,0,0,6.406e-5,0.041,16.129,204.317,88.264,-0.015,2.123,11.134,944.018,338.046,0.05,0.05
3.754,610.695,318.389,13.12,318.487,13.142,11.483,9.524e-5,11.483,4.752e-4,7.9,0.746,28.61,-80.6,9.79,0.011,-8.337e-9,-0.005,-2.097e-4,2.633e4,5099.381,29.088,0.093,263.284,209.73,3.32,0.942,7.711e7,1318.317,714.688,0.597,0.597,0.297,0.065,0.235,0.001,0.005,-7.221e-5,0,0,0,0,-8.39e-5,0.041,16.129,204.317,88.182,0.012,2.133,11.03,942.241,337.983,0.05,0.051
3.804,626.631,319.033,12.852,319.132,12.905,11.88,6.009e-5,11.88,2.898e-4,7.949,1.165,28.61,-80.6,9.79,0.08,-2.343e-8,-0.004,-1.164e-5,2.63e4,5065.237,29.038,0.093,262.877,209.578,3.305,0.945,7.717e7,1312.71,716.554,0.597,0.597,0.296,0.064,0.236,0.01,0.033,2.021e-4,0,0,0,0,-4.909e-5,0.041,16.129,204.317,88.106,0.03,2.14,10.927,940.461,337.921,0.05,0.051
3.854,642.598,319.664,12.587,319.764,12.65,12.278,4.218e-5,12.278,1.968e-4,8.01,1.264,28.61,-80.6,9.79,0.095,-7.005e-9,-0.002,-4.311e-5,2.626e4,5031.247,28.988,0.092,262.83,209.425,3.311,0.947,7.723e7,1306.894,718.368,0.597,0.597,0.296,0.064,0.236,0.012,0.039,4.767e-4,0,0,0,0,-1.022e-5,0.041,16.129,204.317,88.059,0.031,2.283,10.823,938.677,337.858,0.05,0.051
3.904,658.597,320.281,12.319,320.382,12.388,12.681,4.122e-5,12.681,1.863e-4,8.076,1.31,28.61,-80.6,9.79,0.104,-1.146e-8,7.175e-4,-4.099e-5,2.623e4,4997.406,28.938,0.092,262.797,209.273,3.319,0.949,7.728e7,1300.866,720.086,0.597,0.597,0.296,0.064,0.237,0.013,0.043,-2.259e-4,0,0,0,0,1.989e-6,0.041,16.129,204.317,88.052,0.011,2.229,10.719,936.889,337.795,0.05,0.052
3.954,674.626,320.884,12.056,320.987,12.099,13.086,4.68e-5,13.086,2.049e-4,8.135,1.017,28.61,-80.6,9.79,0.057,-2.191e-8,0.002,-5.235e-5,2.619e4,4963.733,28.888,0.092,263.031,209.121,3.342,0.951,7.733e7,1294.63,721.732,0.597,0.597,0.296,0.064,0.237,0.007,0.023,-2.673e-4,0,0,0,0,2.392e-5,0.041,16.129,204.317,88.084,-0.014,2.288,10.615,935.098,337.732,0.05,0.052
4.004,690.685,321.474,11.787,321.578,11.812,13.494,4.691e-5,13.494,1.992e-4,8.18,0.773,28.61,-80.6,9.79,0.02,1.261e-8,0.003,-2.097e-4,2.616e4,4930.229,28.839,0.092,263.099,208.97,3.356,0.953,7.737e7,1288.192,723.294,0.597,0.597,0.295,0.064,0.238,0.002,0.008,1.63e-4,0,0,0,0,4.541e-5,0.041,16.129,204.317,88.139,-0.033,2.158,10.511,933.304,337.668,0.05,0.053
4.054,706.773,322.05,11.514,322.155,11.521,13.904,3.203e-5,13.904,1.32e-4,8.208,0.386,28.61,-80.6,9.79,0.042,-1.937e-8,-0.003,-8.507e-5,2.613e4,4896.891,28.789,0.092,263.226,208.819,3.373,0.954,7.741e7,1281.549,724.813,0.597,0.597,0.295,0.064,0.238,0.005,0.017,-2.705e-4,0,0,0,0,-3.801e-5,0.041,16.129,204.317,88.201,-0.04,2.152,10.406,931.507,337.605,0.05,0.053
4.104,722.89,322.612,11.233,322.717,11.233,14.314,1.164e-6,14.314,4.659e-6,8.217,0.042,28.61,-80.6,9.79,0.096,-1.124e-8,-0.002,-3.435e-5,2.609e4,4863.736,28.74,0.092,262.963,208.668,3.366,0.956,7.745e7,1274.706,726.285,0.597,0.597,0.295,0.064,0.239,0.012,0.041,8.642e-5,0,0,0,0,-8.904e-6,0.041,16.129,204.317,88.246,-0.034,2.222,10.301,929.706,337.541,0.05,0.054
4.154,739.034,323.16,10.939,323.264,10.939,14.725,-4.195e-5,14.725,-1.632e-4,8.214,0.06,28.61,-80.6,9.79,0.111,-1.945e-8,9.809e-4,-3.073e-5,2.606e4,4830.767,28.691,0.092,262.909,208.518,3.372,0.958,7.748e7,1267.668,727.674,0.597,0.597,0.294,0.063,0.239,0.014,0.047,5.331e-5,0,0,0,0,3.651e-6,0.041,16.129,204.317,88.25,-0.018,2.295,10.196,927.902,337.478,0.05,0.054
4.204,755.205,323.692,10.63,323.796,10.632,15.136,-8.994e-5,15.136,-3.405e-4,8.217,0.231,28.61,-80.6,9.79,0.062,6.941e-9,0.003,-3.466e-5,2.603e4,4797.977,28.642,0.092,263.139,208.368,3.396,0.96,7.751e7,1260.435,728.945,0.597,0.597,0.294,0.063,0.24,0.008,0.027,-3.409e-4,0,0,0,0,3.411e-5,0.041,16.129,204.317,88.211,0.002,2.24,10.091,926.095,337.414,0.05,0.055
4.254,771.403,324.209,10.312,324.313,10.328,15.547,-1.326e-4,15.547,-4.888e-4,8.238,0.59,28.61,-80.6,9.79,0.003,-3.539e-8,0.004,-4.81e-4,2.6e4,4765.387,28.593,0.092,263.179,208.219,3.408,0.962,7.754e7,1253.01,730.162,0.597,0.597,0.294,0.063,0.24,3.982e-4,0.002,1.39e-4,0,0,0,0,5.331e-5,0.042,16.129,204.317,88.147,0.016,2.263,9.986,924.286,337.35,0.05,0.055
4.29,783.071,323.855,-9.773,323.96,9.775,15.844,-1.572e-4,15.844,-5.683e-4,8.24,0.18,28.61,-80.6,9.79,0.038,-1.301e-8,-0.004,-6.686e-5,2.598e4,4751.737,28.573,0.092,263.335,208.157,3.421,0.961,7.738e7,728.387,727.728,0.597,0.597,0.294,0.063,0.24,0.005,0.016,2.149e-4,0,0,0,0,-4.767e-5,0.041,16.129,204.317,88.098,0.021,2.299,9.91,922.982,337.304,0.036,0.056
4.34,799.216,321.975,-37.426,322.079,37.43,16.255,-1.81e-4,16.255,-6.379e-4,8.209,0.521,28.61,-80.6,9.79,0.08,-1.884e-8,-0.002,-1.197e-5,2.598e4,4751.737,28.573,0.092,263.027,208.157,3.402,0.955,7.683e7,0,718.049,0.597,0.597,0.295,0.064,0.239,0.01,0.034,2.42e-4,0,0,0,0,-1.738e-5,0.041,16.129,204.317,88.046,0.019,2.318,9.805,921.178,337.241,0.05,0.056
4.39,815.268,320.112,-37.062,320.217,37.065,16.665,-1.941e-4,16.665,-6.672e-4,8.186,0.461,28.61,-80.6,9.79,0.091,-1.243e-8,-1.218e-4,-3.718e-5,2.598e4,4751.737,28.573,0.092,262.889,208.157,3.393,0.95,7.629e7,0,708.541,0.597,0.597,0.296,0.064,0.237,0.011,0.039,5.348e-5,0,0,0,0,-5.741e-8,0.041,16.129,204.317,88.026,0.012,2.333,9.701,919.385,337.178,0.05,0.057
4.44,831.228,318.268,-36.699,318.373,36.703,17.074,-1.999e-4,17.074,-6.71e-4,8.162,0.527,28.61,-80.6,9.79,0.077,-9.075e-9,0.002,-3.082e-5,2.598e4,4751.737,28.573,0.092,262.858,208.157,3.391,0.945,7.575e7,0,699.186,0.597,0.597,0.297,0.064,0.236,0.01,0.033,-4.145e-4,0,0,0,0,1.304e-5,0.041,16.129,204.317,88.043,-0.004,2.283,9.597,917.602,337.115,0.05,0.057
4.49,847.095,316.443,-36.335,316.547,36.345,17.481,-2.06e-4,17.481,-6.751e-4,8.128,0.849,28.61,-80.6,9.79,0.014,0,0.003,-1.43e-4,2.598e4,4751.737,28.573,0.092,262.975,208.157,3.399,0.939,7.522e7,0,690.012,0.597,0.597,0.297,0.065,0.235,0.002,0.006,-3.863e-4,0,0,0,0,3.386e-5,0.041,16.129,204.317,88.089,-0.02,2.358,9.494,915.829,337.052,0.05,0.058
4.54,862.872,314.635,-35.98,314.738,35.997,17.886,-2.183e-4,17.886,-6.993e-4,8.078,1.114,28.61,-80.6,9.79,0.041,0,-0.003,-6.664e-5,2.598e4,4751.737,28.573,0.092,262.953,208.157,3.397,0.934,7.47e7,0,681.008,0.597,0.597,0.298,0.065,0.233,0.005,0.018,1.844e-4,0,0,0,0,-2.641e-5,0.04,16.129,204.317,88.141,-0.028,2.369,9.391,914.066,336.99,0.05,0.058
4.59,878.559,312.844,-35.635,312.947,35.656,18.288,-2.4e-4,18.288,-7.518e-4,8.018,1.226,28.61,-80.6,9.79,0.067,-8.576e-9,-0.001,-3.056e-5,2.598e4,4751.737,28.573,0.092,262.735,208.157,3.384,0.929,7.418e7,0,672.157,0.597,0.597,0.299,0.066,0.232,0.008,0.028,-4.279e-4,0,0,0,0,-7.536e-6,0.04,16.129,204.317,88.178,-0.029,2.311,9.289,912.314,336.928,0.05,0.059
4.64,894.157,311.071,-35.3,311.173,35.322,18.688,-2.704e-4,18.688,-8.29e-4,7.956,1.233,28.61,-80.6,9.789,0.072,-1.06e-8,1.546e-4,-8.387e-7,2.598e4,4751.737,28.573,0.092,262.64,208.157,3.378,0.924,7.366e7,0,663.462,0.597,0.597,0.3,0.066,0.231,0.009,0.03,-1.557e-4,0,0,0,0,9.784e-8,0.04,16.129,204.317,88.188,-0.026,2.281,9.188,910.571,336.867,0.05,0.059
4.69,909.667,309.314,-34.976,309.415,34.992,19.084,-3.074e-4,19.084,-9.228e-4,7.898,1.061,28.61,-80.6,9.789,0.041,0,0.001,2.017e-6,2.598e4,4751.737,28.573,0.092,262.718,208.157,3.383,0.919,7.315e7,0,654.902,0.597,0.597,0.301,0.066,0.23,0.005,0.017,3.677e-4,0,0,0,0,8.245e-6,0.04,16.129,204.317,88.172,-0.017,2.193,9.087,908.838,336.806,0.05,0.06
4.74,925.089,307.574,-34.655,307.674,34.67,19.478,-3.467e-4,19.478,-0.001,7.848,0.992,28.61,-80.6,9.789,0.028,-6.164e-9,0.002,-4.481e-5,2.598e4,4751.737,28.573,0.092,262.692,208.157,3.381,0.914,7.265e7,0,646.522,0.597,0.597,0.301,0.067,0.229,0.003,0.012,-1.639e-4,0,0,0,0,1.73e-5,0.039,16.129,204.317,88.14,0.002,2.288,8.987,907.115,336.745,0.05,0.06
4.79,940.424,305.848,-34.347,305.948,34.354,19.869,-3.819e-4,19.869,-0.001,7.805,0.694,28.61,-80.6,9.789,0.031,-1.714e-8,-0.002,-1.783e-5,2.598e4,4751.737,28.573,0.092,262.695,208.157,3.381,0.909,7.215e7,0,638.26,0.597,0.597,0.302,0.067,0.227,0.004,0.013,-3.476e-4,0,0,0,0,-1.995e-5,0.039,16.129,204.317,88.1,0.019,2.166,8.887,905.402,336.685,0.05,0.061
4.84,955.674,304.139,-34.04,304.238,34.045,20.259,-4.072e-4,20.259,-0.001,7.776,0.525,28.61,-80.6,9.789,0.065,-1.929e-8,-0.001,4.166e-6,2.598e4,4751.737,28.573,0.092,262.463,208.157,3.367,0.904,7.166e7,0,630.154,0.597,0.597,0.303,0.067,0.226,0.008,0.027,-2.526e-4,0,0,0,0,-4.962e-6,0.039,16.129,204.317,88.07,0.028,2.116,8.788,903.698,336.625,0.05,0.061
4.89,970.838,302.445,-33.71,302.544,33.714,20.647,-4.197e-4,20.647,-0.001,7.75,0.517,28.61,-80.6,9.789,0.066,-1.252e-8,2.395e-4,-2.665e-5,2.598e4,4751.737,28.573,0.092,262.408,208.157,3.364,0.899,7.117e7,0,621.576,0.596,0.596,0.304,0.067,0.225,0.008,0.028,1.668e-4,0,0,0,0,2.486e-7,0.039,16.129,204.317,88.063,0.026,2.124,8.69,902.004,336.565,0.05,0.062
4.94,985.919,300.77,-33.296,300.869,33.303,21.033,-4.206e-4,21.033,-0.001,7.721,0.689,28.61,-80.6,9.789,0.028,-1.038e-8,0.001,-1.287e-5,2.598e4,4751.737,28.573,0.092,262.531,208.157,3.371,0.894,7.069e7,0,610.965,0.593,0.593,0.304,0.065,0.224,0.003,0.012,8.401e-6,0,0,0,0,6.454e-6,0.039,16.129,204.317,88.078,0.013,2.226,8.592,900.319,336.505,0.05,0.062
4.99,1000.916,299.115,-32.897,299.213,32.907,21.419,-4.154e-4,21.419,-0.001,7.683,0.801,28.61,-80.6,9.789,5.385e-4,-2.037e-8,0.001,1.134e-5,2.598e4,4751.737,28.573,0.092,262.675,208.157,3.38,0.89,7.021e7,0,600.713,0.591,0.591,0.304,0.064,0.223,6.662e-5,7.844e-5,-4.578e-4,0,0,0,0,9.106e-6,0.038,16.129,204.317,88.104,-0.002,2.222,8.494,898.648,336.446,0.05,0.063
5.04,1015.83,297.48,-32.515,297.578,32.527,21.802,-4.096e-4,21.802,-0.001,7.641,0.87,28.61,-80.6,9.789,0.019,-1.343e-8,-0.001,-2.117e-5,2.598e4,4751.737,28.573,0.092,262.492,208.157,3.369,0.885,6.975e7,0,590.847,0.588,0.588,0.304,0.062,0.222,0.002,0.008,-4.055e-4,0,0,0,0,-7.376e-6,0.038,16.129,204.317,88.129,-0.013,2.175,8.397,897.062,336.388,0.05,0.063
5.09,1030.664,295.863,-32.145,295.961,32.159,22.183,-4.072e-4,22.183,-0.001,7.595,0.957,28.61,-80.6,9.789,0.041,-1.088e-8,-7.549e-4,-1.548e-5,2.598e4,4751.737,28.573,0.092,262.332,208.157,3.359,0.88,6.929e7,0,581.309,0.586,0.586,0.305,0.06,0.221,0.005,0.017,-4.713e-4,0,0,0,0,-2.58e-6,0.038,16.129,204.317,88.148,-0.019,2.189,8.301,895.484,336.329,0.05,0.064
5.14,1045.417,294.265,-31.788,294.362,31.803,22.561,-4.102e-4,22.561,-0.001,7.546,0.989,28.61,-80.6,9.789,0.052,-1.39e-8,1.719e-4,-7.615e-6,2.598e4,4751.737,28.573,0.092,262.228,208.157,3.352,0.876,6.884e7,0,572.064,0.584,0.584,0.305,0.059,0.22,0.006,0.021,4.045e-4,0,0,0,0,1.352e-7,0.038,16.129,204.317,88.153,-0.021,2.211,8.205,893.915,336.271,0.05,0.064
5.19,1060.091,292.684,-31.445,292.78,31.457,22.937,-4.189e-4,22.937,-0.001,7.498,0.889,28.61,-80.6,9.789,0.032,-1.097e-8,9.602e-4,-1.337e-5,2.598e4,4751.737,28.573,0.092,262.259,208.157,3.354,0.871,6.839e7,0,563.075,0.582,0.582,0.305,0.058,0.219,0.004,0.013,1.48e-4,0,0,0,0,4.266e-6,0.037,16.129,204.317,88.142,-0.013,2.161,8.109,892.354,336.213,0.05,0.065
5.24,1074.686,291.12,-31.113,291.216,31.122,23.311,-4.296e-4,23.311,-0.001,7.458,0.747,28.61,-80.6,9.789,0.002,-1.601e-8,0.001,7.563e-6,2.598e4,4751.737,28.573,0.092,262.391,208.157,3.363,0.866,6.795e7,0,554.343,0.579,0.579,0.306,0.056,0.218,2.674e-4,0.001,-1.86e-4,0,0,0,0,7.604e-6,0.037,16.129,204.317,88.121,0.001,2.102,8.015,890.801,336.156,0.05,0.065
5.29,1089.203,289.573,-30.787,289.668,30.796,23.683,-4.383e-4,23.683,-0.001,7.421,0.735,28.61,-80.6,9.789,3.676e-4,-1.193e-8,4.544e-4,-0.001,2.598e4,4751.737,28.573,0.092,261.5,208.157,3.307,0.862,6.751e7,0,545.878,0.578,0.578,0.306,0.055,0.217,4.559e-5,-1.128e-4,2.732e-4,0,0,0,0,9.76e-7,0.037,16.129,204.317,88.098,0.012,2.197,7.92,889.257,336.099,0.05,0.066
5.34,1103.643,288.041,-30.472,288.136,30.479,24.053,-4.417e-4,24.053,-0.001,7.386,0.672,28.61,-80.6,9.789,0.014,-1.664e-8,-0.001,-3.18e-5,2.598e4,4751.737,28.573,0.092,262.278,208.157,3.356,0.858,6.708e7,0,537.63,0.576,0.576,0.306,0.054,0.216,0.002,0.005,-9.426e-5,0,0,0,0,-6.598e-6,0.037,16.129,204.317,88.075,0.015,2.225,7.826,887.721,336.042,0.05,0.066
5.39,1118.007,286.525,-30.164,286.62,30.171,24.422,-4.388e-4,24.422,-0.001,7.354,0.615,28.61,-80.6,9.789,0.026,-1.282e-8,-8.076e-4,-3.265e-5,2.598e4,4751.737,28.573,0.092,262.118,208.157,3.346,0.853,6.665e7,0,529.595,0.574,0.574,0.306,0.053,0.215,0.003,0.011,1.337e-4,0,0,0,0,-3.149e-6,0.037,16.129,204.317,88.057,0.011,2.237,7.733,886.193,335.985,0.05,0.067
5.44,1132.296,285.025,-29.866,285.119,29.87,24.789,-4.313e-4,24.789,-9.968e-4,7.326,0.508,28.61,-80.6,9.789,0.049,-1.312e-8,-1.984e-4,-3.51e-5,2.598e4,4751.737,28.573,0.092,261.937,208.157,3.334,0.849,6.622e7,0,521.748,0.572,0.572,0.307,0.052,0.214,0.006,0.021,-1.257e-4,0,0,0,0,-1.919e-7,0.037,16.129,204.317,88.047,-2.074e-4,2.145,7.64,884.673,335.929,0.05,0.067
5.49,1146.51,283.539,-29.568,283.633,29.575,25.154,-4.229e-4,25.154,-9.633e-4,7.299,0.611,28.61,-80.6,9.789,0.023,-1.43e-8,5.017e-4,-4.669e-5,2.598e4,4751.737,28.573,0.092,261.958,208.157,3.336,0.845,6.581e7,0,514.119,0.57,0.57,0.307,0.051,0.213,0.003,0.009,2.457e-4,0,0,0,0,1.241e-6,0.036,16.129,204.317,88.051,-0.017,2.236,7.548,883.161,335.873,0.05,0.068
5.54,1160.65,282.068,-29.279,282.161,29.287,25.518,-4.191e-4,25.518,-9.41e-4,7.266,0.676,28.61,-80.6,9.789,0.005,-1.227e-8,6.379e-4,-1.997e-4,2.598e4,4751.737,28.573,0.092,261.466,208.157,3.305,0.84,6.539e7,0,506.665,0.569,0.569,0.307,0.05,0.212,5.88e-4,0.002,1.077e-4,0,0,0,0,2.027e-6,0.036,16.129,204.317,88.062,-0.034,2.257,7.456,881.657,335.817,0.05,0.068
5.59,1174.717,280.611,-28.996,280.704,29.006,25.881,-4.249e-4,25.881,-9.406e-4,7.23,0.783,28.61,-80.6,9.789,0.024,-1.644e-8,-5.418e-4,-6.575e-6,2.598e4,4751.737,28.573,0.092,262.054,208.157,3.342,0.836,6.498e7,0,499.396,0.567,0.567,0.307,0.049,0.211,0.003,0.01,2.692e-4,0,0,0,0,-1.477e-6,0.036,16.129,204.317,88.074,-0.043,2.326,7.364,880.161,335.762,0.05,0.069
5.64,1188.711,279.168,-28.722,279.26,28.732,26.241,-4.422e-4,26.241,-9.655e-4,7.191,0.744,28.61,-80.6,9.789,0.018,-1.449e-8,-1.41e-4,-9.397e-6,2.598e4,4751.737,28.573,0.092,262.062,208.157,3.342,0.832,6.458e7,0,492.272,0.566,0.566,0.308,0.048,0.21,0.002,0.007,4.445e-4,0,0,0,0,-1.011e-7,0.036,16.129,204.317,88.08,-0.041,2.254,7.273,878.672,335.707,0.05,0.069
5.69,1202.634,277.738,-28.455,277.831,28.464,26.6,-4.695e-4,26.6,-0.001,7.154,0.747,28.61,-80.6,9.789,0.021,-1.433e-8,1.31e-4,-3.438e-5,2.598e4,4751.737,28.573,0.092,261.955,208.157,3.335,0.828,6.417e7,0,485.321,0.564,0.564,0.308,0.047,0.209,0.003,0.009,2.904e-4,0,0,0,0,8.817e-8,0.036,16.129,204.317,88.08,-0.026,2.256,7.183,877.191,335.652,0.05,0.07
5.74,1216.486,276.322,-28.198,276.414,28.203,26.957,-5.024e-4,26.957,-0.001,7.12,0.576,28.61,-80.6,9.788,0.019,-1.298e-8,-2.379e-4,3.476e-5,2.598e4,4751.737,28.573,0.092,261.849,208.157,3.329,0.824,6.377e7,0,478.496,0.563,0.563,0.308,0.046,0.208,0.002,0.008,1.063e-4,0,0,0,0,-2.938e-7,0.035,16.129,204.317,88.076,-0.004,2.066,7.093,875.718,335.597,0.05,0.07
5.79,1230.267,274.919,-27.941,275.01,27.947,27.312,-5.337e-4,27.312,-0.001,7.092,0.581,28.61,-80.6,9.788,0.016,-1.348e-8,1.768e-4,5.678e-5,2.598e4,4751.737,28.573,0.092,261.901,208.157,3.332,0.82,6.338e7,0,471.848,0.562,0.562,0.308,0.046,0.207,0.002,0.007,2.941e-5,0,0,0,0,1.639e-7,0.035,16.129,204.317,88.076,0.018,2.067,7.003,874.252,335.543,0.05,0.07
5.84,1243.978,273.528,-27.691,273.619,27.697,27.666,-5.571e-4,27.666,-0.001,7.063,0.582,28.61,-80.6,9.788,0.014,-1.391e-8,3.273e-4,6.108e-5,2.598e4,4751.737,28.573,0.092,262.008,208.157,3.339,0.816,6.299e7,0,465.338,0.56,0.56,0.309,0.045,0.207,0.002,0.005,-1.936e-4,0,0,0,0,5.674e-7,0.035,16.129,204.317,88.08,0.037,2.043,6.914,872.793,335.489,0.05,0.071
5.89,1257.62,272.15,-27.443,272.24,27.451,28.018,-5.676e-4,28.018,-0.001,7.032,0.646,28.61,-80.6,9.788,0.006,-1.393e-8,-4.062e-4,1.101e-4,2.598e4,4751.737,28.573,0.092,261.093,208.157,3.282,0.812,6.261e7,0,458.974,0.559,0.559,0.309,0.044,0.206,6.985e-4,0.002,4.746e-4,0,0,0,0,-8.83e-7,0.035,16.129,204.317,88.087,0.051,2.083,6.825,871.342,335.435,0.05,0.071
5.94,1271.193,270.784,-27.203,270.874,27.211,28.369,-5.62e-4,28.369,-0.001,7,0.646,28.61,-80.6,9.788,0.008,-1.347e-8,-2.624e-4,6.784e-5,2.598e4,4751.737,28.573,0.092,261.261,208.157,3.292,0.808,6.222e7,0,452.733,0.558,0.558,0.309,0.044,0.205,0.001,0.004,-4.66e-4,0,0,0,0,-3.721e-7,0.035,16.129,204.317,88.094,0.053,2.052,6.737,869.899,335.382,0.05,0.072
5.99,1284.698,269.429,-26.97,269.519,26.976,28.718,-5.406e-4,28.718,-0.001,6.969,0.562,28.61,-80.6,9.788,0.011,-1.298e-8,3.032e-4,-8.099e-6,2.598e4,4751.737,28.573,0.092,261.889,208.157,3.331,0.804,6.184e7,0,446.605,0.556,0.556,0.309,0.043,0.204,0.001,0.005,4.422e-4,0,0,0,0,5.019e-7,0.035,16.129,204.317,88.099,0.036,1.921,6.649,868.462,335.328,0.05,0.072
6.04,1298.136,268.086,-26.741,268.176,26.745,29.066,-5.091e-4,29.066,-0.001,6.943,0.5,28.61,-80.6,9.788,0.025,-1.469e-8,5.783e-4,-6.824e-5,2.598e4,4751.737,28.573,0.092,261.58,208.157,3.312,0.8,6.147e7,0,440.603,0.555,0.555,0.31,0.042,0.203,0.003,0.01,-4.854e-4,0,0,0,0,1.844e-6,0.034,16.129,204.317,88.106,0.007,1.8,6.562,867.033,335.276,0.05,0.073
6.09,1311.507,266.755,-26.515,266.845,26.519,29.413,-4.756e-4,29.413,-9.265e-4,6.919,0.467,28.61,-80.6,9.788,0.031,-1.373e-8,9.919e-4,-9.236e-5,2.598e4,4751.737,28.573,0.092,261.436,208.157,3.303,0.796,6.109e7,0,434.721,0.554,0.554,0.31,0.042,0.202,0.004,0.013,-4.382e-4,0,0,0,0,5.48e-6,0.034,16.129,204.317,88.12,-0.025,1.689,6.475,865.61,335.223,0.05,0.073
6.14,1324.812,265.435,-26.291,265.524,26.297,29.758,-4.487e-4,29.758,-8.64e-4,6.894,0.529,28.61,-80.6,9.788,0.011,-1.654e-8,0.001,-2.088e-4,2.598e4,4751.737,28.573,0.092,261.246,208.157,3.292,0.792,6.073e7,0,428.964,0.553,0.553,0.31,0.041,0.202,0.001,0.005,-1.543e-4,0,0,0,0,9.519e-6,0.034,16.129,204.317,88.142,-0.046,1.667,6.389,864.195,335.17,0.05,0.074
6.19,1338.051,264.126,-26.072,264.215,26.078,30.102,-4.338e-4,30.102,-8.256e-4,6.866,0.581,28.61,-80.6,9.788,0.007,-1.262e-8,-0.001,-3.159e-4,2.598e4,4751.737,28.573,0.092,262.072,208.157,3.343,0.789,6.036e7,0,423.316,0.552,0.552,0.31,0.041,0.201,8.847e-4,0.003,1.876e-4,0,0,0,0,-9.379e-6,0.034,16.129,204.317,88.166,-0.051,1.624,6.303,862.787,335.118,0.05,0.074
6.24,1351.224,262.828,-25.856,262.917,25.865,30.445,-4.313e-4,30.445,-8.117e-4,6.835,0.672,28.61,-80.6,9.788,0.036,-1.598e-8,-0.001,-5.198e-5,2.598e4,4751.737,28.573,0.092,261.467,208.157,3.305,0.785,6e7,0,417.785,0.551,0.551,0.31,0.04,0.2,0.004,0.015,3.085e-4,0,0,0,0,-6.368e-6,0.034,16.129,204.317,88.188,-0.043,1.646,6.217,861.385,335.066,0.05,0.075
6.29,1364.334,261.54,-25.647,261.629,25.656,30.785,-4.386e-4,30.785,-8.163e-4,6.801,0.67,28.61,-80.6,9.788,0.039,-1.509e-8,-4.875e-4,-4.435e-5,2.598e4,4751.737,28.573,0.092,261.37,208.157,3.299,0.781,5.964e7,0,412.348,0.55,0.55,0.311,0.04,0.199,0.005,0.016,-2.644e-4,0,0,0,0,-1.377e-6,0.034,16.129,204.317,88.202,-0.025,1.59,6.132,859.991,335.015,0.05,0.075
6.34,1377.379,260.263,-25.441,260.351,25.45,31.125,-4.506e-4,31.125,-8.296e-4,6.768,0.674,28.61,-80.6,9.788,0.043,-1.426e-8,5.157e-5,-4.482e-5,2.598e4,4751.737,28.573,0.092,261.281,208.157,3.294,0.777,5.929e7,0,407.016,0.548,0.548,0.311,0.039,0.199,0.005,0.017,-1.446e-4,0,0,0,0,1.556e-8,0.033,16.129,204.317,88.206,-0.001,1.579,6.047,858.603,334.963,0.05,0.075
6.39,1390.36,258.996,-25.239,259.083,25.249,31.462,-4.614e-4,31.462,-8.402e-4,6.733,0.709,28.61,-80.6,9.788,0.055,-1.298e-8,6.855e-4,-4.11e-5,2.598e4,4751.737,28.573,0.092,261.158,208.157,3.286,0.774,5.894e7,0,401.795,0.547,0.547,0.311,0.038,0.198,0.007,0.022,-5.372e-5,0,0,0,0,2.776e-6,0.033,16.129,204.317,88.199,0.022,1.659,5.963,857.223,334.912,0.05,0.076
6.44,1403.278,257.739,-25.042,257.826,25.052,31.798,-4.65e-4,31.798,-8.379e-4,6.697,0.71,28.61,-80.6,9.788,0.056,-1.987e-8,0.001,-5.622e-5,2.598e4,4751.737,28.573,0.092,261.108,208.157,3.283,0.77,5.859e7,0,396.667,0.546,0.546,0.311,0.038,0.197,0.007,0.022,2.729e-4,0,0,0,0,1.237e-5,0.033,16.129,204.317,88.18,0.04,1.747,5.879,855.848,334.861,0.05,0.076
6.49,1416.134,256.492,-24.848,256.578,24.858,32.132,-4.579e-4,32.132,-8.164e-4,6.662,0.682,28.61,-80.6,9.788,0.048,-9.417e-9,0.002,-6.454e-5,2.598e4,4751.737,28.573,0.092,261.085,208.157,3.282,0.767,5.824e7,0,391.632,0.545,0.545,0.312,0.038,0.196,0.006,0.019,-4.267e-4,0,0,0,0,2.753e-5,0.033,16.129,204.317,88.147,0.047,1.848,5.795,854.481,334.811,0.05,0.077
6.54,1428.928,255.254,-24.66,255.34,24.668,32.464,-4.383e-4,32.464,-7.736e-4,6.63,0.62,28.61,-80.6,9.788,0.028,-1.94e-8,0.003,-9.842e-5,2.598e4,4751.737,28.573,0.092,261.12,208.157,3.284,0.763,5.79e7,0,386.686,0.544,0.544,0.312,0.037,0.196,0.003,0.012,-4.785e-4,0,0,0,0,4.174e-5,0.033,16.129,204.317,88.104,0.041,1.948,5.712,853.12,334.76,0.05,0.077
6.59,1441.66,254.026,-24.477,254.111,24.482,32.795,-4.084e-4,32.795,-7.135e-4,6.602,0.47,28.61,-80.6,9.788,0.018,-1.555e-8,-0.003,-1.352e-4,2.598e4,4751.737,28.573,0.092,261.331,208.157,3.297,0.759,5.756e7,0,381.815,0.544,0.544,0.312,0.037,0.195,0.002,0.008,-2e-6,0,0,0,0,-4.586e-5,0.033,16.129,204.317,88.054,0.027,1.943,5.629,851.766,334.71,0.05,0.078
6.64,1454.33,252.806,-24.3,252.892,24.301,33.125,-3.715e-4,33.125,-6.426e-4,6.584,0.258,28.61,-80.6,9.788,0.084,-2.183e-8,-0.002,-2.465e-5,2.598e4,4751.737,28.573,0.092,260.897,208.157,3.27,0.756,5.723e7,0,377.023,0.543,0.543,0.312,0.036,0.194,0.01,0.034,2.494e-4,0,0,0,0,-2.712e-5,0.032,16.129,204.317,88.01,0.012,1.822,5.547,850.418,334.66,0.05,0.078
6.69,1466.94,251.596,-24.122,251.682,24.123,33.453,-3.32e-4,33.453,-5.687e-4,6.574,0.16,28.61,-80.6,9.788,0.115,-1.036e-8,-7.692e-4,-4.323e-5,2.598e4,4751.737,28.573,0.092,260.716,208.157,3.259,0.752,5.689e7,0,372.321,0.542,0.542,0.312,0.036,0.194,0.014,0.046,2.694e-4,0,0,0,0,-3.704e-6,0.032,16.129,204.317,87.984,-0.005,1.772,5.465,849.077,334.611,0.05,0.079
6.74,1479.49,250.394,-23.944,250.48,23.944,33.782,-2.94e-4,33.782,-4.987e-4,6.566,0.174,28.61,-80.6,9.788,0.11,-1.489e-8,6.292e-4,-4.403e-5,2.598e4,4751.737,28.573,0.092,260.696,208.157,3.257,0.749,5.656e7,0,367.696,0.541,0.541,0.313,0.035,0.193,0.014,0.045,-1.616e-5,0,0,0,0,2.502e-6,0.032,16.129,204.317,87.983,-0.021,1.769,5.383,847.742,334.561,0.05,0.079
6.79,1491.98,249.201,-23.766,249.288,23.767,34.11,-2.614e-4,34.11,-4.391e-4,6.556,0.254,28.61,-80.6,9.788,0.083,-1.691e-8,0.002,-4.701e-5,2.598e4,4751.737,28.573,0.092,260.776,208.157,3.262,0.745,5.623e7,0,363.144,0.54,0.54,0.313,0.035,0.192,0.01,0.033,7.048e-5,0,0,0,0,2.125e-5,0.032,16.129,204.317,88.006,-0.033,1.759,5.302,846.413,334.512,0.05,0.08
6.84,1504.41,248.017,-23.59,248.104,23.593,34.438,-2.371e-4,34.438,-3.944e-4,6.541,0.348,28.61,-80.6,9.788,0.049,-1.458e-8,0.003,-8.142e-5,2.598e4,4751.737,28.573,0.092,260.872,208.157,3.268,0.742,5.591e7,0,358.673,0.539,0.539,0.313,0.035,0.192,0.006,0.019,4.972e-4,0,0,0,0,4.401e-5,0.032,16.129,204.317,88.047,-0.04,1.706,5.221,845.114,334.463,0.05,0.08
6.89,1516.782,246.842,-23.414,246.928,23.421,34.764,-2.219e-4,34.764,-3.658e-4,6.518,0.575,28.61,-80.6,9.788,0.029,-2.32e-8,-0.003,-1.206e-4,2.598e4,4751.737,28.573,0.092,261.109,208.157,3.283,0.739,5.559e7,0,354.315,0.538,0.538,0.313,0.034,0.191,0.004,0.012,1.095e-4,0,0,0,0,-5.077e-5,0.032,16.129,204.317,88.097,-0.04,1.812,5.141,843.861,334.414,0.05,0.081
6.94,1529.095,245.676,-23.244,245.761,23.256,35.089,-2.153e-4,35.089,-3.515e-4,6.485,0.747,28.61,-80.6,9.788,0.09,-1.581e-8,-0.002,-4.798e-5,2.598e4,4751.737,28.573,0.092,260.713,208.157,3.259,0.735,5.527e7,0,350.033,0.537,0.537,0.313,0.034,0.19,0.011,0.036,-1.508e-4,0,0,0,0,-2.723e-5,0.031,16.129,204.317,88.142,-0.029,1.879,5.061,842.615,334.366,0.05,0.081
6.99,1541.35,244.518,-23.079,244.603,23.094,35.412,-2.142e-4,35.412,-3.466e-4,6.445,0.809,28.61,-80.6,9.787,0.115,-1.28e-8,-8.017e-4,-4.795e-5,2.598e4,4751.737,28.573,0.092,260.552,208.157,3.248,0.732,5.496e7,0,345.809,0.537,0.537,0.313,0.034,0.19,0.014,0.046,4.379e-4,0,0,0,0,-4.26e-6,0.031,16.129,204.317,88.168,-0.01,1.872,4.981,841.375,334.318,0.05,0.082
7.04,1553.547,243.368,-22.919,243.452,22.934,35.734,-2.141e-4,35.734,-3.433e-4,6.404,0.824,28.61,-80.6,9.787,0.123,-1.408e-8,5.817e-4,-3.295e-5,2.598e4,4751.737,28.573,0.092,260.473,208.157,3.244,0.728,5.465e7,0,341.653,0.536,0.536,0.314,0.033,0.189,0.015,0.049,-3.952e-4,0,0,0,0,2.264e-6,0.031,16.129,204.317,88.17,0.013,1.899,4.902,840.14,334.269,0.05,0.082
7.09,1565.686,242.226,-22.763,242.309,22.775,36.053,-2.101e-4,36.053,-3.34e-4,6.365,0.738,28.61,-80.6,9.787,0.096,-1.958e-8,0.002,-4.385e-5,2.598e4,4751.737,28.573,0.092,260.56,208.157,3.249,0.725,5.434e7,0,337.55,0.535,0.535,0.314,0.033,0.188,0.012,0.038,1.935e-4,0,0,0,0,2.362e-5,0.031,16.129,204.317,88.147,0.03,1.879,4.823,838.911,334.222,0.05,0.083
7.14,1577.769,241.092,-22.611,241.175,22.62,36.37,-1.99e-4,36.37,-3.134e-4,6.33,0.649,28.61,-80.6,9.787,0.066,-6.613e-9,0.003,-5.92e-5,2.598e4,4751.737,28.573,0.092,260.647,208.157,3.254,0.722,5.404e7,0,333.52,0.534,0.534,0.314,0.032,0.188,0.008,0.026,-2.722e-4,0,0,0,0,5.218e-5,0.031,16.129,204.317,88.104,0.039,1.926,4.744,837.689,334.174,0.05,0.083
7.19,1589.796,239.965,-22.464,240.047,22.469,36.686,-1.786e-4,36.686,-2.789e-4,6.302,0.472,28.61,-80.6,9.787,0.003,-2.11e-8,0.003,-0.001,2.598e4,4751.737,28.573,0.092,260.243,208.157,3.229,0.719,5.373e7,0,329.544,0.533,0.533,0.314,0.032,0.187,4.275e-4,0.002,2.696e-4,0,0,0,0,6.314e-5,0.031,16.129,204.317,88.049,0.039,1.883,4.666,836.471,334.127,0.05,0.084
7.24,1601.766,238.845,-22.318,238.928,22.321,37.001,-1.493e-4,37.001,-2.312e-4,6.282,0.342,28.61,-80.6,9.787,0.044,-7.866e-9,-0.003,-9.197e-5,2.598e4,4751.737,28.573,0.092,260.793,208.157,3.263,0.715,5.343e7,0,325.643,0.533,0.533,0.314,0.032,0.187,0.005,0.018,-3.494e-4,0,0,0,0,-5.887e-5,0.031,16.129,204.317,87.993,0.031,1.899,4.589,835.26,334.08,0.05,0.084
7.29,1613.68,237.733,-22.173,237.815,22.174,37.314,-1.127e-4,37.314,-1.73e-4,6.267,0.272,28.61,-80.6,9.787,0.071,-1.322e-8,-0.002,-3.556e-5,2.598e4,4751.737,28.573,0.092,260.608,208.157,3.252,0.712,5.313e7,0,321.808,0.532,0.532,0.315,0.032,0.186,0.009,0.028,4.098e-4,0,0,0,0,-3.654e-5,0.03,16.129,204.317,87.946,0.022,1.964,4.511,834.054,334.033,0.05,0.085
7.34,1625.539,236.628,-22.03,236.71,22.031,37.627,-7.123e-5,37.627,-1.085e-4,6.255,0.181,28.61,-80.6,9.787,0.104,-1.344e-8,-0.001,-1.682e-5,2.598e4,4751.737,28.573,0.092,260.414,208.157,3.24,0.709,5.284e7,0,318.024,0.531,0.531,0.315,0.031,0.185,0.013,0.041,1.911e-5,0,0,0,0,-1.297e-5,0.03,16.129,204.317,87.913,0.012,1.936,4.434,832.853,333.986,0.05,0.085
7.39,1637.343,235.53,-21.889,235.613,21.889,37.94,-2.731e-5,37.94,-4.124e-5,6.248,0.129,28.61,-80.6,9.787,0.123,-1.389e-8,-1.279e-4,-9.978e-6,2.598e4,4751.737,28.573,0.092,260.294,208.157,3.233,0.706,5.254e7,0,314.293,0.531,0.531,0.315,0.031,0.185,0.015,0.049,2.287e-4,0,0,0,0,-1.168e-7,0.03,16.129,204.317,87.9,0.003,1.883,4.357,831.659,333.939,0.05,0.086
7.44,1649.092,234.439,-21.746,234.522,21.746,38.252,1.69e-5,38.252,2.531e-5,6.241,0.163,28.61,-80.6,9.787,0.109,-1.547e-8,0.001,-2.363e-5,2.598e4,4751.737,28.573,0.092,260.327,208.157,3.235,0.703,5.225e7,0,310.615,0.53,0.53,0.315,0.031,0.184,0.013,0.044,-3.858e-4,0,0,0,0,9.494e-6,0.03,16.129,204.317,87.909,-0.005,1.868,4.281,830.469,333.893,0.05,0.086
7.49,1660.787,233.355,-21.603,233.438,21.604,38.564,5.984e-5,38.564,8.891e-5,6.231,0.256,28.61,-80.6,9.787,0.073,-1.452e-8,0.002,-2.901e-5,2.598e4,4751.737,28.573,0.092,260.462,208.157,3.243,0.699,5.196e7,0,306.991,0.529,0.529,0.315,0.03,0.184,0.009,0.028,-3.416e-4,0,0,0,0,3.26e-5,0.03,16.129,204.317,87.94,-0.009,1.87,4.205,829.286,333.847,0.05,0.087
7.54,1672.428,232.279,-21.46,232.362,21.464,38.875,1.006e-4,38.875,1.483e-4,6.214,0.411,28.61,-80.6,9.787,0.011,-1.945e-8,0.003,-1.196e-4,2.598e4,4751.737,28.573,0.092,260.642,208.157,3.254,0.696,5.167e7,0,303.427,0.528,0.528,0.315,0.03,0.183,0.001,0.005,-5.18e-5,0,0,0,0,4.834e-5,0.03,16.129,204.317,87.983,-0.01,1.926,4.129,828.108,333.801,0.05,0.087
7.59,1684.015,231.209,-21.322,231.292,21.327,39.185,1.392e-4,39.185,2.035e-4,6.191,0.483,28.61,-80.6,9.787,0.021,-1.387e-8,-0.002,-5.504e-5,2.598e4,4751.737,28.573,0.092,260.716,208.157,3.259,0.693,5.139e7,0,299.908,0.528,0.528,0.316,0.03,0.182,0.003,0.008,3.206e-4,0,0,0,0,-4.514e-5,0.03,16.129,204.317,88.029,-0.007,1.855,4.054,826.935,333.756,0.05,0.088
