# Time (s),Altitude (m),Vertical velocity (m/s),Vertical acceleration (m/s²),Total velocity (m/s),Total acceleration (m/s²),Position East of launch (m),Position North of launch (m),Lateral distance (m),Lateral direction (°),Lateral velocity (m/s),Lateral acceleration (m/s²),Latitude (°),Longitude (°),Gravitational acceleration (m/s²),Angle of attack (°),Roll rate (r/s),Pitch rate (r/s),Yaw rate (r/s),Mass (g),Motor mass (g),Longitudinal moment of inertia (kg·m²),Rotational moment of inertia (kg·m²),CP location (cm),CG location (cm),Stability margin calibers (​),Mach number (​),Reynolds number (​),Thrust (N),Drag force (N),Drag coefficient (​),Axial drag coefficient (​),Friction drag coefficient (​),Pressure drag coefficient (​),Base drag coefficient (​),Normal force coefficient (​),Pitch moment coefficient (​),Yaw moment coefficient (​),Side force coefficient (​),Roll moment coefficient (​),Roll forcing coefficient (​),Roll damping coefficient (​),Pitch damping coefficient (​),Coriolis acceleration (m/s²),Reference length (cm),Reference area (cm²),Vertical orientation (zenith) (°),Lateral orientation (azimuth) (°),Wind velocity (m/s),Air temperature (°C),Air pressure (mbar),Speed of sound (m/s),Simulation time step (s),Computation time (s)
0.01,7.666e-5,0.015,1.535,0.015,1.535,0,0,0,0,0,0,28.61,-80.6,9.792,89.575,0,0,0,3.537e4,1.113e4,34.905,0.112,NaN,228.972,NaN,0.006,5.099e5,400.605,3.338e-8,0.611,6.24e-7,0.482,0.009,0.12,NaN,NaN,NaN,NaN,NaN,NaN,NaN,NaN,1.963e-6,16.129,204.317,90,0,2.068,15,1013.25,340.389,0.01,0.002
0.02,0.001,0.257,24.193,0.257,24.193,0,0,0,0,0,0,28.61,-80.6,9.792,82.95,0,0,0,3.536e4,1.113e4,34.898,0.112,NaN,228.955,NaN,0.006,5.169e5,1201.794,1.456e-4,0.61,0.003,0.48,0.009,0.12,NaN,NaN,NaN,NaN,NaN,NaN,NaN,NaN,3.294e-5,16.129,204.317,90,0,2.08,15,1013.25,340.389,0.01,0.003
0.03,0.006,0.726,46.86,0.726,46.86,0,0,0,0,0,0,28.61,-80.6,9.792,70.87,0,0,0,3.536e4,1.112e4,34.892,0.112,NaN,228.938,NaN,0.007,5.462e5,2002.983,0.003,0.604,0.045,0.475,0.009,0.12,NaN,NaN,NaN,NaN,NaN,NaN,NaN,NaN,9.293e-5,16.129,204.317,90,0,2.092,15,1013.249,340.389,0.01,0.004
0.04,0.017,1.309,58.324,1.309,58.324,0,0,0,0,0,0,28.61,-80.6,9.792,58.124,0,0,0,3.534e4,1.111e4,34.879,0.112,NaN,228.903,NaN,0.007,6.113e5,2407.436,0.013,0.593,0.173,0.463,0.009,0.12,NaN,NaN,NaN,NaN,NaN,NaN,NaN,NaN,1.676e-4,16.129,204.317,90,0,2.105,15,1013.248,340.389,0.01,0.004
0.05,0.033,1.894,58.566,1.894,58.566,0,0,0,0,0,0,28.61,-80.6,9.792,48.178,0,0,0,3.533e4,1.11e4,34.867,0.112,NaN,228.868,NaN,0.008,7.006e5,2415.154,0.033,0.58,0.323,0.451,0.009,0.12,NaN,NaN,NaN,NaN,NaN,NaN,NaN,NaN,2.426e-4,16.129,204.317,90,0,2.117,15,1013.246,340.389,0.01,0.005
0.06,0.054,2.482,58.808,2.482,58.808,0,0,0,0,0,0,28.61,-80.6,9.792,40.502,0,0,0,3.532e4,1.108e4,34.854,0.111,NaN,228.833,NaN,0.01,8.051e5,2422.871,0.06,0.567,0.452,0.438,0.009,0.12,NaN,NaN,NaN,NaN,NaN,NaN,NaN,NaN,3.178e-4,16.129,204.317,90,0,2.12,15,1013.244,340.389,0.01,0.005
0.07,0.082,3.073,59.049,3.073,59.049,0,0,0,0,0,0,28.61,-80.6,9.792,34.648,0,0,0,3.531e4,1.107e4,34.841,0.111,NaN,228.798,NaN,0.011,9.211e5,2430.572,0.095,0.556,0.543,0.426,0.009,0.12,NaN,NaN,NaN,NaN,NaN,NaN,NaN,NaN,3.934e-4,16.129,204.317,90,0,2.124,14.999,1013.24,340.389,0.01,0.005
0.08,0.116,3.666,59.291,3.666,59.291,0,0,0,0,0,0,28.61,-80.6,9.792,30.122,0,0,0,3.529e4,1.106e4,34.829,0.111,NaN,228.763,NaN,0.012,1.045e6,2438.256,0.135,0.545,0.602,0.416,0.009,0.12,NaN,NaN,NaN,NaN,NaN,NaN,NaN,NaN,4.693e-4,16.129,204.317,90,0,2.127,14.999,1013.236,340.388,0.01,0.006
0.09,0.156,4.261,59.532,4.261,59.532,0,0,0,0,0,0,28.61,-80.6,9.792,26.56,0,0,0,3.528e4,1.105e4,34.816,0.111,NaN,228.728,NaN,0.014,1.175e6,2445.941,0.181,0.536,0.637,0.406,0.009,0.12,NaN,NaN,NaN,NaN,NaN,NaN,NaN,NaN,5.455e-4,16.129,204.317,90,0,2.13,14.999,1013.232,340.388,0.01,0.006
0.1,0.201,4.858,59.773,4.858,59.773,0,0,0,0,0,0,28.61,-80.6,9.792,23.704,0,0,0,3.527e4,1.103e4,34.803,0.111,NaN,228.692,NaN,0.016,1.309e6,2453.607,0.231,0.527,0.655,0.398,0.009,0.12,NaN,NaN,NaN,NaN,NaN,NaN,NaN,NaN,6.22e-4,16.129,204.317,90,0,2.133,14.999,1013.226,340.388,0.01,0.006
0.11,0.253,5.458,60.014,5.458,60.014,0,0,0,0,0,0,28.61,-80.6,9.792,21.436,0,0,0,3.525e4,1.102e4,34.79,0.111,NaN,228.657,NaN,0.017,1.446e6,2461.256,0.285,0.52,0.662,0.39,0.009,0.12,NaN,NaN,NaN,NaN,NaN,NaN,NaN,NaN,6.989e-4,16.129,204.317,90,0,2.143,14.998,1013.22,340.388,0.01,0.007
0.12,0.31,6.061,60.255,6.061,60.255,0,0,0,0,0,0,28.61,-80.6,9.792,19.557,0,0,0,3.524e4,1.101e4,34.777,0.111,NaN,228.621,NaN,0.019,1.586e6,2468.905,0.343,0.513,0.662,0.383,0.009,0.12,NaN,NaN,NaN,NaN,NaN,NaN,NaN,NaN,7.76e-4,16.129,204.317,90,0,2.153,14.998,1013.214,340.388,0.01,0.007
0.13,0.374,6.666,60.495,6.666,60.495,0,0,0,0,0,0,28.61,-80.6,9.792,17.978,0,0,0,3.523e4,1.099e4,34.764,0.111,NaN,228.585,NaN,0.021,1.728e6,2476.536,0.404,0.507,0.658,0.377,0.009,0.12,NaN,NaN,NaN,NaN,NaN,NaN,NaN,NaN,8.534e-4,16.129,204.317,90,0,2.163,14.998,1013.206,340.387,0.01,0.007
0.14,0.444,7.273,60.735,7.273,60.735,0,0,0,0,0,0,28.61,-80.6,9.792,16.635,0,0,0,3.522e4,1.098e4,34.751,0.111,NaN,228.549,NaN,0.022,1.872e6,2484.148,0.47,0.501,0.651,0.372,0.009,0.12,NaN,NaN,NaN,NaN,NaN,NaN,NaN,NaN,9.312e-4,16.129,204.317,90,0,2.173,14.997,1013.198,340.387,0.01,0.008
0.15,0.519,7.883,60.976,7.883,60.976,0,0,0,0,0,0,28.61,-80.6,9.792,15.479,0,0,0,3.52e4,1.097e4,34.738,0.111,NaN,228.513,NaN,0.024,2.017e6,2491.76,0.537,0.496,0.642,0.367,0.009,0.12,NaN,NaN,NaN,NaN,NaN,NaN,NaN,NaN,0.001,16.129,204.317,90,0,2.183,14.997,1013.189,340.387,0.01,0.008
0.16,0.601,8.495,61.216,8.495,61.216,0,0,0,0,0,0,28.61,-80.6,9.792,14.581,0,0,0,3.519e4,1.096e4,34.725,0.111,NaN,228.477,NaN,0.026,2.165e6,2499.353,0.608,0.491,0.631,0.362,0.009,0.12,NaN,NaN,NaN,NaN,NaN,NaN,NaN,NaN,0.001,16.129,204.317,90,0,2.21,14.996,1013.179,340.387,0.01,0.008
0.17,0.689,9.109,61.455,9.109,61.455,0,0,0,0,0,0,28.61,-80.6,9.792,13.794,0,0,0,3.518e4,1.094e4,34.711,0.111,NaN,228.44,NaN,0.028,2.313e6,2506.926,0.682,0.487,0.619,0.357,0.009,0.12,NaN,NaN,NaN,NaN,NaN,NaN,NaN,NaN,0.001,16.129,204.317,90,0,2.236,14.996,1013.169,340.386,0.01,0.009
0.18,0.783,9.726,61.695,9.726,61.695,0,0,0,0,0,0,28.61,-80.6,9.792,13.099,0,0,0,3.516e4,1.093e4,34.698,0.111,NaN,228.404,NaN,0.029,2.462e6,2514.499,0.759,0.483,0.608,0.353,0.009,0.12,NaN,NaN,NaN,NaN,NaN,NaN,NaN,NaN,0.001,16.129,204.317,90,0,2.263,14.995,1013.158,340.386,0.01,0.009
0.19,0.884,10.345,61.934,10.345,61.934,0,0,0,0,0,0,28.61,-80.6,9.792,12.481,0,0,0,3.515e4,1.092e4,34.685,0.111,NaN,228.367,NaN,0.031,2.613e6,2522.052,0.84,0.479,0.598,0.35,0.009,0.12,NaN,NaN,NaN,NaN,NaN,NaN,NaN,NaN,0.001,16.129,204.317,90,0,2.29,14.994,1013.146,340.385,0.01,0.009
0.2,0.987,10.946,62.168,10.946,62.168,0,0,0,0,0,0,28.61,-80.6,9.792,11.946,0,0,0,3.514e4,1.09e4,34.672,0.111,NaN,228.331,NaN,0.033,2.759e6,2529.459,0.921,0.476,0.588,0.346,0.009,0.12,NaN,NaN,NaN,NaN,NaN,NaN,NaN,NaN,0.001,16.129,204.317,90,0,2.316,14.994,1013.134,340.385,0.01,0.01
0.209,1.089,11.516,62.393,11.516,62.393,0,0,0,0,0,0,28.61,-80.6,9.792,11.252,0,0,0,3.513e4,1.089e4,34.66,0.111,NaN,228.298,NaN,0.034,2.895e6,2536.541,0.995,0.473,0.577,0.343,0.009,0.12,NaN,NaN,NaN,NaN,NaN,NaN,NaN,NaN,0.001,16.129,204.317,90,0,2.291,14.993,1013.122,340.385,0.009,0.01
0.223,1.253,12.374,62.671,12.374,62.671,-1.158e-5,0,1.158e-5,-180,0.002,0.124,28.61,-80.6,9.792,10.303,0,-6.812e-6,0,3.511e4,1.087e4,34.641,0.111,226.336,228.247,-0.118,0.037,3.101e6,2545.119,1.11,0.469,0.561,0.339,0.01,0.12,2.178,-0.258,-1.129e-5,0,0,0,0,-1.041e-7,0.002,16.129,204.317,90,0,2.251,14.992,1013.103,340.384,0.014,0.01
0.243,1.521,13.67,63.088,13.67,63.088,-7.283e-5,0,7.283e-5,-180,0.004,0.127,28.61,-80.6,9.792,9.089,0,-1.096e-5,8.475e-9,3.508e4,1.085e4,34.613,0.111,228.022,228.17,-0.009,0.041,3.414e6,2557.948,1.308,0.468,0.545,0.338,0.01,0.12,1.825,-0.017,-4.427e-4,0,0,0,0,-2.225e-7,0.002,16.129,204.317,90,-179.972,2.191,14.99,1013.072,340.383,0.021,0.011
0.274,1.972,15.633,63.71,15.633,63.711,-2.664e-4,0,2.664e-4,-180,0.008,0.14,28.61,-80.6,9.792,8.07,0,-5.606e-6,2.815e-8,3.504e4,1.08e4,34.571,0.111,229.599,228.054,0.096,0.046,3.893e6,2577.112,1.659,0.467,0.532,0.337,0.01,0.12,1.548,0.149,-2.82e-5,0,0,0,0,-4.473e-8,0.002,16.129,204.317,90,-179.941,2.225,14.987,1013.019,340.381,0.031,0.011
0.32,2.764,18.619,64.641,18.619,64.641,-8.115e-4,0,8.115e-4,-180,0.015,0.157,28.61,-80.6,9.792,6.814,0,2.26e-5,7.902e-8,3.498e4,1.074e4,34.507,0.111,231.774,227.877,0.242,0.055,4.624e6,2605.664,2.267,0.466,0.515,0.336,0.01,0.12,1.231,0.297,-1.443e-4,0,0,0,0,5.152e-7,0.002,16.129,204.317,90,-179.607,2.24,14.982,1012.926,340.378,0.046,0.012
0.37,3.778,21.904,65.778,21.904,65.778,-0.002,-8.933e-9,0.002,-180,0.023,0.165,28.61,-80.6,9.792,5.546,0,9.163e-5,8.284e-8,3.491e4,1.067e4,34.436,0.111,234.282,227.682,0.409,0.065,5.426e6,2640.993,3.029,0.465,0.5,0.335,0.01,0.121,0.94,0.384,1.204e-4,0,0,0,0,6.151e-6,0.003,16.129,204.317,89.999,-0.065,2.151,14.975,1012.807,340.374,0.05,0.012
0.42,4.956,25.248,66.944,25.248,66.945,-0.003,-2.233e-8,0.003,-180,0.032,0.175,28.61,-80.6,9.792,4.721,0,1.964e-4,-6.074e-8,3.484e4,1.06e4,34.365,0.111,236.113,227.485,0.535,0.074,6.246e6,2677.28,3.939,0.464,0.491,0.334,0.01,0.121,0.765,0.409,2.465e-4,0,0,0,0,2.132e-5,0.003,16.129,204.317,89.997,-0.015,2.118,14.968,1012.669,340.369,0.05,0.013
0.47,6.304,28.65,68.101,28.65,68.101,-0.005,-4.438e-8,0.005,-179.999,0.041,0.184,28.61,-80.6,9.792,4.116,0,3.371e-4,-1.335e-7,3.477e4,1.053e4,34.291,0.111,237.572,227.283,0.638,0.084,7.081e6,2713.119,4.998,0.464,0.484,0.333,0.01,0.121,0.645,0.411,-3.125e-4,0,0,0,0,4.886e-5,0.004,16.129,204.317,89.992,0.001,2.107,14.959,1012.511,340.364,0.05,0.013
0.52,7.823,32.109,69.246,32.109,69.246,-0.007,-7.265e-8,0.007,-179.999,0.05,0.182,28.61,-80.6,9.792,3.543,0,5.135e-4,-2.199e-7,3.47e4,1.046e4,34.217,0.111,239.057,227.078,0.743,0.095,7.929e6,2748.486,6.198,0.463,0.479,0.332,0.01,0.121,0.537,0.399,3.075e-4,0,0,0,0,9.04e-5,0.004,16.129,204.317,89.984,0.009,2.047,14.949,1012.333,340.358,0.05,0.014
0.57,9.516,35.625,70.379,35.625,70.379,-0.01,-1.012e-7,0.01,-179.999,0.059,0.175,28.61,-80.6,9.792,3.072,0,7.236e-4,-1.08e-7,3.462e4,1.039e4,34.142,0.111,240.356,226.87,0.836,0.105,8.792e6,2783.349,7.559,0.463,0.475,0.332,0.01,0.121,0.453,0.378,1.182e-5,0,0,0,0,1.459e-4,0.005,16.129,204.317,89.973,0.01,1.988,14.938,1012.134,340.351,0.05,0.014
0.62,11.387,39.197,71.499,39.197,71.499,-0.013,-1.24e-7,0.013,-179.999,0.067,0.159,28.61,-80.6,9.792,2.665,0,9.664e-4,-4.559e-8,3.455e4,1.032e4,34.065,0.111,241.547,226.658,0.923,0.115,9.669e6,2817.689,9.084,0.463,0.472,0.331,0.01,0.122,0.383,0.353,-1.828e-5,0,0,0,0,2.152e-4,0.005,16.129,204.317,89.958,0.007,1.921,14.926,1011.915,340.344,0.05,0.014
0.67,13.437,42.824,72.604,42.824,72.605,-0.017,-1.415e-7,0.017,-180,0.075,0.139,28.61,-80.6,9.792,2.367,0,0.001,-2.488e-8,3.448e4,1.024e4,33.987,0.111,242.463,226.443,0.993,0.126,1.056e7,2851.481,10.789,0.463,0.47,0.331,0.01,0.122,0.334,0.331,1.722e-4,0,0,0,0,2.938e-4,0.005,16.129,204.317,89.938,0.003,1.891,14.913,1011.674,340.336,0.05,0.015
0.72,15.67,46.505,73.694,46.505,73.694,-0.021,-1.601e-7,0.021,-180,0.081,0.124,28.61,-80.6,9.792,2.222,0,0.002,-2.562e-8,3.44e4,1.017e4,33.908,0.111,242.925,226.224,1.035,0.137,1.146e7,2884.694,12.695,0.462,0.469,0.33,0.01,0.122,0.31,0.321,-1.595e-5,0,0,0,0,3.904e-4,0.006,16.129,204.317,89.913,0.001,1.956,14.898,1011.412,340.327,0.05,0.015
0.77,18.089,50.241,74.768,50.241,74.768,-0.025,-1.827e-7,0.025,-180,0.087,0.096,28.61,-80.6,9.792,2.07,0,0.002,-1.676e-8,3.433e4,1.009e4,33.827,0.111,243.42,226.002,1.08,0.148,1.238e7,2917.308,14.784,0.462,0.468,0.329,0.01,0.123,0.286,0.309,2.702e-4,0,0,0,0,5.026e-4,0.006,16.129,204.317,89.882,0.001,2.006,14.882,1011.128,340.318,0.05,0.016
0.82,20.696,54.029,75.826,54.029,75.826,-0.029,-2.124e-7,0.029,-180,0.091,0.045,28.61,-80.6,9.792,1.857,0,0.002,-2.026e-7,3.425e4,1.001e4,33.745,0.111,244.128,225.777,1.138,0.159,1.331e7,2949.303,17.052,0.463,0.467,0.329,0.01,0.123,0.253,0.288,8.578e-5,0,0,0,0,6.338e-4,0.007,16.129,204.317,89.845,0.002,1.989,14.865,1010.823,340.307,0.05,0.016
0.87,23.493,57.869,76.865,57.869,76.865,-0.034,-2.381e-7,0.034,-180,0.091,0.029,28.61,-80.6,9.792,1.614,0,0.003,-4.721e-7,3.417e4,9936.363,33.663,0.111,244.96,225.548,1.204,0.17,1.425e7,2980.644,19.512,0.463,0.466,0.329,0.01,0.124,0.217,0.261,-1.574e-4,0,0,0,0,7.614e-4,0.007,16.129,204.317,89.8,0.002,1.924,14.847,1010.495,340.296,0.05,0.017
0.92,26.484,61.76,77.885,61.76,77.885,-0.038,-2.467e-7,0.038,-180,0.088,0.103,28.61,-80.6,9.792,1.477,0,0.003,-6.382e-7,3.409e4,9858.006,33.578,0.11,245.448,225.315,1.248,0.182,1.521e7,3011.316,22.199,0.463,0.466,0.328,0.01,0.124,0.197,0.244,-2.214e-4,0,0,0,0,9.041e-4,0.008,16.129,204.317,89.748,0.003,1.952,14.828,1010.144,340.285,0.05,0.017
0.97,29.67,65.701,78.885,65.701,78.885,-0.042,-2.194e-7,0.042,-180,0.08,0.205,28.61,-80.6,9.792,1.296,0,0.004,-3.141e-7,3.401e4,9778.9,33.493,0.11,246.104,225.079,1.304,0.193,1.617e7,3041.297,25.09,0.463,0.465,0.328,0.011,0.125,0.17,0.222,-9.851e-5,0,0,0,0,0.001,0.008,16.129,204.317,89.688,0.003,1.925,14.807,1009.77,340.272,0.05,0.017
1.02,33.055,69.692,79.864,69.692,79.864,-0.046,-1.445e-7,0.046,-180,0.067,0.323,28.61,-80.6,9.792,1.133,0,0.004,-1.009e-6,3.393e4,9699.062,33.406,0.11,246.712,224.84,1.356,0.205,1.715e7,3070.554,28.205,0.463,0.465,0.327,0.011,0.125,0.147,0.199,-1.826e-4,0,0,0,0,0.001,0.009,16.129,204.317,89.619,0.003,1.908,14.785,1009.373,340.259,0.05,0.018
1.07,36.64,73.73,80.82,73.73,80.822,-0.049,-1.08e-8,0.049,-180,0.047,0.466,28.61,-80.6,9.792,0.962,0,0.004,8.853e-9,3.385e4,9618.424,33.319,0.11,247.366,224.598,1.412,0.217,1.814e7,3099.074,31.547,0.464,0.465,0.327,0.011,0.126,0.124,0.173,1.045e-4,0,0,0,0,0.001,0.009,16.129,204.317,89.543,0.003,1.873,14.762,1008.953,340.245,0.05,0.018
1.12,40.429,77.815,81.754,77.815,81.756,-0.051,2.147e-7,0.051,180,0.019,0.64,28.61,-80.6,9.792,0.761,0,0.005,-8.057e-7,3.377e4,9537.093,33.23,0.11,248.149,224.352,1.475,0.229,1.914e7,3126.835,35.121,0.464,0.465,0.326,0.011,0.127,0.096,0.141,1.417e-4,0,0,0,0,0.001,0.01,16.129,204.317,89.458,0.003,1.79,14.737,1008.508,340.23,0.05,0.019
1.17,44.423,81.945,82.662,81.945,82.666,-0.051,5.631e-7,0.051,179.999,0.018,0.82,28.61,-80.6,9.792,0.618,0,0.005,-1.543e-6,3.369e4,9455.088,33.14,0.11,248.73,224.103,1.527,0.241,2.015e7,3153.806,38.951,0.465,0.465,0.326,0.011,0.128,0.078,0.117,-4.469e-4,0,0,0,0,0.001,0.01,16.129,204.317,89.366,0.003,1.773,14.711,1008.04,340.214,0.05,0.019
1.22,48.625,86.12,83.545,86.12,83.551,-0.049,1.086e-6,0.049,179.999,0.064,1.009,28.61,-80.6,9.792,0.511,0,0.006,-1.231e-6,3.361e4,9372.348,33.048,0.11,249.179,223.85,1.57,0.253,2.117e7,3179.976,43.039,0.465,0.466,0.325,0.011,0.128,0.064,0.098,-3.233e-4,0,0,0,0,0.002,0.011,16.129,204.317,89.267,0.003,1.806,14.684,1007.547,340.197,0.05,0.02
1.27,53.036,90.337,84.401,90.337,84.41,-0.044,1.815e-6,0.044,179.998,0.119,1.208,28.61,-80.6,9.792,0.424,0,0.006,-2.64e-7,3.352e4,9288.976,32.956,0.11,249.553,223.594,1.609,0.266,2.219e7,3205.323,47.39,0.466,0.466,0.325,0.012,0.129,0.052,0.083,-2.796e-4,0,0,0,0,0.002,0.012,16.129,204.317,89.161,0.003,1.872,14.655,1007.03,340.18,0.05,0.02
1.32,57.659,94.596,85.229,94.596,85.241,-0.037,2.799e-6,0.037,179.996,0.185,1.417,28.61,-80.6,9.792,0.357,0,0.006,-4.154e-7,3.344e4,9204.991,32.862,0.11,249.852,223.335,1.644,0.278,2.323e7,3229.819,52.01,0.467,0.467,0.325,0.012,0.13,0.044,0.07,-4.878e-4,0,0,0,0,0.002,0.012,16.129,204.317,89.05,0.003,1.972,14.625,1006.488,340.162,0.05,0.02
1.37,62.497,98.895,86.028,98.896,86.044,-0.026,4.063e-6,0.026,179.991,0.262,1.66,28.61,-80.6,9.792,0.25,0,0.007,-1.225e-6,3.335e4,9120.343,32.767,0.11,250.321,223.073,1.689,0.291,2.428e7,3253.453,56.898,0.467,0.467,0.324,0.012,0.131,0.031,0.05,7.352e-6,0,0,0,0,0.002,0.013,16.129,204.317,88.933,0.003,2.011,14.594,1005.92,340.143,0.05,0.021
1.42,67.55,103.233,86.797,103.234,86.819,-0.01,5.62e-6,0.01,179.969,0.352,1.934,28.61,-80.6,9.792,0.114,0,0.007,-3.18e-7,3.327e4,9035.126,32.671,0.11,250.921,222.808,1.743,0.304,2.534e7,3276.207,62.065,0.468,0.468,0.324,0.012,0.132,0.014,0.023,-3.88e-5,0,0,0,0,0.002,0.013,16.129,204.317,88.812,0.002,1.993,14.561,1005.328,340.123,0.05,0.021
1.47,72.821,107.608,87.535,107.609,87.563,0.01,7.476e-6,0.01,0.043,0.456,2.226,28.61,-80.6,9.792,0.026,0,-0.007,-4.836e-6,3.318e4,8949.364,32.574,0.11,251.333,222.539,1.785,0.316,2.64e7,3298.053,67.524,0.469,0.469,0.323,0.013,0.133,0.003,0.007,4.282e-4,0,0,0,0,-0.001,0.014,16.129,204.317,88.689,0.002,1.957,14.527,1004.709,340.102,0.05,0.022
1.52,78.311,112.018,88.24,112.019,88.276,0.036,9.632e-6,0.036,0.015,0.576,2.519,28.61,-80.6,9.792,0.142,0,-0.007,-1.888e-6,3.31e4,8863.014,32.476,0.11,250.863,222.267,1.773,0.329,2.747e7,3318.982,73.284,0.47,0.47,0.323,0.013,0.134,0.017,0.031,-2.608e-6,0,0,0,0,-0.001,0.014,16.129,204.317,88.567,0.002,1.947,14.491,1004.065,340.08,0.05,0.025
1.57,84.023,116.462,88.913,116.464,88.957,0.068,1.213e-5,0.068,0.01,0.709,2.786,28.61,-80.6,9.792,0.204,0,-0.006,-2.432e-6,3.301e4,8776.165,32.377,0.11,250.635,221.993,1.776,0.343,2.855e7,3338.979,79.347,0.471,0.471,0.322,0.013,0.135,0.025,0.045,-7.539e-5,0,0,0,0,-0.001,0.015,16.129,204.317,88.448,0.001,2.032,14.454,1003.395,340.058,0.05,0.026
1.62,89.958,120.938,89.553,120.941,89.604,0.107,1.491e-5,0.107,0.008,0.855,3.045,28.61,-80.6,9.792,0.256,0,-0.006,-2.784e-6,3.292e4,8688.84,32.277,0.109,250.451,221.715,1.782,0.356,2.963e7,3358.016,85.718,0.472,0.472,0.322,0.014,0.136,0.031,0.057,-4.289e-4,0,0,0,0,-9.004e-4,0.015,16.129,204.317,88.335,5.166e-4,2.12,14.415,1002.699,340.035,0.05,0.026
1.67,96.118,125.444,90.159,125.448,90.218,0.153,1.792e-5,0.153,0.007,1.013,3.268,28.61,-80.6,9.792,0.266,0,-0.006,2.365e-6,3.284e4,8601.008,32.175,0.109,250.445,221.434,1.799,0.369,3.072e7,3376.089,92.4,0.473,0.473,0.321,0.014,0.138,0.033,0.059,-1.91e-4,0,0,0,0,-7.263e-4,0.016,16.129,204.317,88.229,5.092e-4,2.283,14.375,1001.977,340.01,0.05,0.027
1.72,102.503,129.98,90.729,129.985,90.796,0.208,2.115e-5,0.208,0.006,1.183,3.501,28.61,-80.6,9.792,0.302,0,-0.005,1.977e-6,3.275e4,8512.749,32.073,0.109,250.332,221.15,1.809,0.382,3.182e7,3393.184,99.403,0.474,0.474,0.321,0.014,0.139,0.037,0.067,3.043e-4,0,0,0,0,-5.619e-4,0.017,16.129,204.317,88.131,0.001,2.373,14.334,1001.228,339.985,0.05,0.027
1.77,109.116,134.542,91.261,134.549,91.339,0.272,2.477e-5,0.272,0.005,1.365,3.775,28.61,-80.6,9.792,0.4,0,-0.005,-2.593e-7,3.266e4,8424.087,31.97,0.109,249.966,220.864,1.804,0.396,3.292e7,3409.273,106.739,0.475,0.476,0.32,0.015,0.14,0.05,0.09,-1.637e-4,0,0,0,0,-4.02e-4,0.017,16.129,204.317,88.044,0.002,2.291,14.291,1000.452,339.959,0.05,0.027
1.82,115.958,139.129,91.755,139.137,91.844,0.345,2.891e-5,0.345,0.005,1.561,4.037,28.61,-80.6,9.792,0.498,0,-0.004,-3.554e-6,3.257e4,8335.003,31.865,0.109,249.61,220.574,1.8,0.409,3.402e7,3424.357,114.412,0.477,0.477,0.32,0.015,0.142,0.062,0.112,6.501e-5,0,0,0,0,-2.27e-4,0.018,16.129,204.317,87.971,0.001,2.157,14.246,999.65,339.932,0.05,0.028
1.87,123.03,143.739,92.217,143.75,92.312,0.428,3.354e-5,0.428,0.004,1.767,4.186,28.61,-80.6,9.792,0.503,0,-0.002,-5.267e-6,3.248e4,8245.567,31.76,0.109,249.629,220.282,1.82,0.423,3.513e7,3438.423,122.401,0.478,0.479,0.319,0.015,0.143,0.063,0.114,4.054e-4,0,0,0,0,-9.879e-5,0.018,16.129,204.317,87.917,-1.305e-4,2.196,14.2,998.821,339.904,0.05,0.028
1.92,130.333,148.37,92.642,148.383,92.74,0.522,3.831e-5,0.522,0.004,1.979,4.258,28.61,-80.6,9.792,0.471,0,-0.001,-5.313e-6,3.239e4,8155.806,31.654,0.109,249.801,219.987,1.848,0.437,3.624e7,3451.446,130.72,0.48,0.48,0.319,0.016,0.145,0.059,0.109,-8.013e-5,0,0,0,0,-2.272e-5,0.019,16.129,204.317,87.885,-0.002,2.278,14.153,997.964,339.876,0.05,0.028
1.97,137.867,153.021,93.03,153.037,93.129,0.626,4.271e-5,0.626,0.004,2.193,4.285,28.61,-80.6,9.792,0.438,0,-3.826e-5,-8.554e-7,3.23e4,8065.708,31.546,0.109,249.982,219.69,1.878,0.45,3.736e7,3463.428,139.381,0.481,0.481,0.318,0.016,0.146,0.054,0.102,3.883e-4,0,0,0,0,-2.216e-8,0.02,16.129,204.317,87.874,-0.004,2.318,14.104,997.08,339.846,0.05,0.029
2.02,145.635,157.69,93.379,157.708,93.477,0.741,4.636e-5,0.741,0.004,2.408,4.281,28.61,-80.6,9.792,0.414,0,0.001,1.487e-6,3.221e4,7975.338,31.438,0.109,250.124,219.389,1.906,0.464,3.848e7,3474.361,148.39,0.483,0.483,0.318,0.017,0.148,0.052,0.098,-3.398e-5,0,0,0,0,2.157e-5,0.02,16.129,204.317,87.885,-0.004,2.273,14.053,996.169,339.815,0.05,0.029
2.07,153.637,162.374,93.69,162.396,93.783,0.867,4.918e-5,0.867,0.003,2.62,4.175,28.61,-80.6,9.792,0.346,0,0.002,-1.969e-6,3.212e4,7884.721,31.329,0.109,250.454,219.087,1.945,0.478,3.96e7,3484.221,157.743,0.484,0.485,0.317,0.017,0.15,0.043,0.083,8.968e-5,0,0,0,0,7.718e-5,0.021,16.129,204.317,87.918,-0.004,2.302,14.001,995.231,339.784,0.05,0.029
2.12,161.873,167.073,93.962,167.097,94.048,1.003,5.123e-5,1.003,0.003,2.825,4.021,28.61,-80.6,9.792,0.276,0,0.003,-6.648e-6,3.203e4,7793.857,31.219,0.109,250.793,218.781,1.985,0.492,4.072e7,3493.012,167.454,0.486,0.486,0.317,0.018,0.151,0.034,0.067,-4.581e-4,0,0,0,0,1.49e-4,0.021,16.129,204.317,87.971,-0.005,2.289,13.948,994.265,339.751,0.05,0.03
2.17,170.344,171.783,94.192,171.809,94.269,1.149,5.247e-5,1.149,0.003,3.022,3.813,28.61,-80.6,9.792,0.199,0,0.004,-2.134e-6,3.194e4,7702.801,31.108,0.109,251.169,218.474,2.027,0.506,4.184e7,3500.729,177.528,0.488,0.488,0.316,0.018,0.153,0.024,0.049,-1.661e-4,0,0,0,0,2.209e-4,0.022,16.129,204.317,88.041,-0.005,2.259,13.893,993.271,339.718,0.05,0.03
2.22,179.051,176.502,94.378,176.531,94.446,1.305,5.297e-5,1.305,0.002,3.206,3.566,28.61,-80.6,9.792,0.119,0,0.005,-8.689e-6,3.185e4,7611.578,30.997,0.109,251.564,218.164,2.071,0.52,4.296e7,3507.351,187.971,0.49,0.49,0.316,0.019,0.155,0.014,0.03,3.168e-4,0,0,0,0,2.69e-4,0.023,16.129,204.317,88.124,-0.004,2.211,13.836,992.25,339.684,0.05,0.031
2.27,187.995,181.229,94.521,181.26,94.578,1.47,5.274e-5,1.47,0.002,3.378,3.29,28.61,-80.6,9.792,0.04,0,0.005,-5.813e-6,3.175e4,7520.201,30.884,0.108,251.964,217.851,2.115,0.534,4.408e7,3512.886,198.788,0.492,0.492,0.315,0.02,0.157,0.005,0.01,-3.18e-4,0,0,0,0,2.961e-4,0.023,16.129,204.317,88.215,-0.004,2.145,13.778,991.201,339.648,0.05,0.031
2.32,197.174,185.961,94.619,185.994,94.665,1.643,5.209e-5,1.643,0.002,3.534,2.973,28.61,-80.6,9.792,0.053,0,-0.005,-9.992e-6,3.166e4,7428.713,30.771,0.108,251.982,217.537,2.136,0.548,4.52e7,3517.329,209.99,0.494,0.494,0.315,0.02,0.159,0.006,0.014,-2.404e-4,0,0,0,0,-2.745e-4,0.024,16.129,204.317,88.309,-0.002,2.129,13.718,990.125,339.612,0.05,0.032
2.37,206.591,190.696,94.669,190.731,94.707,1.823,5.15e-5,1.823,0.002,3.676,2.679,28.61,-80.6,9.792,0.126,0,-0.005,-5.399e-8,3.157e4,7337.141,30.657,0.108,251.737,217.22,2.14,0.562,4.631e7,3520.663,221.572,0.496,0.496,0.314,0.021,0.161,0.015,0.033,-2.23e-4,0,0,0,0,-2.189e-4,0.024,16.129,204.317,88.399,-0.002,2.075,13.657,989.02,339.575,0.05,0.032
2.42,216.244,195.431,94.671,195.468,94.701,2.01,5.117e-5,2.01,0.001,3.803,2.409,28.61,-80.6,9.792,0.187,0,-0.004,1.027e-6,3.148e4,7245.507,30.543,0.108,251.549,216.901,2.148,0.576,4.743e7,3522.898,233.538,0.498,0.498,0.313,0.022,0.163,0.023,0.05,4.857e-4,0,0,0,0,-1.451e-4,0.025,16.129,204.317,88.478,-0.001,2.032,13.594,987.888,339.537,0.05,0.032
2.47,226.134,200.164,94.624,200.203,94.649,2.203,5.132e-5,2.203,0.001,3.917,2.197,28.61,-80.6,9.792,0.229,0,-0.003,6.195e-6,3.139e4,7153.845,30.427,0.108,251.451,216.581,2.162,0.59,4.854e7,3524.032,245.882,0.5,0.501,0.313,0.023,0.165,0.028,0.061,-1.817e-4,0,0,0,0,-6.912e-5,0.026,16.129,204.317,88.539,-9.199e-4,1.992,13.53,986.728,339.498,0.05,0.033
2.52,236.26,204.893,94.527,204.933,94.549,2.401,5.177e-5,2.401,0.001,4.023,2.039,28.61,-80.6,9.791,0.259,5.873e-9,-0.001,-4.897e-6,3.13e4,7062.181,30.311,0.108,251.408,216.258,2.179,0.604,4.964e7,3524.052,258.61,0.503,0.503,0.312,0.023,0.167,0.032,0.07,-1.585e-5,0,0,0,0,-1.839e-5,0.026,16.129,204.317,88.577,-0.005,1.992,13.464,985.541,339.458,0.05,0.033
2.57,246.623,209.615,94.381,209.656,94.401,2.605,5.173e-5,2.605,0.001,4.122,1.924,28.61,-80.6,9.791,0.288,0,2.342e-4,6.691e-6,3.121e4,6970.548,30.195,0.108,251.369,215.934,2.197,0.618,5.075e7,3522.97,271.731,0.505,0.505,0.311,0.024,0.17,0.036,0.079,1.653e-4,0,0,0,0,4.425e-7,0.027,16.129,204.317,88.589,-0.008,2.102,13.397,984.325,339.417,0.05,0.033
2.62,257.222,214.328,94.183,214.369,94.204,2.814,5.044e-5,2.814,0.001,4.218,2.003,28.61,-80.6,9.791,0.255,0,0.002,-2.401e-6,3.111e4,6878.971,30.078,0.108,251.6,215.608,2.232,0.632,5.184e7,3520.787,285.196,0.508,0.508,0.311,0.025,0.172,0.032,0.07,2.221e-4,0,0,0,0,3.256e-5,0.027,16.129,204.317,88.568,-0.009,2.095,13.328,983.082,339.376,0.05,0.034
2.67,268.056,219.028,93.931,219.071,93.959,3.027,4.762e-5,3.027,9.014e-4,4.325,2.302,28.61,-80.6,9.791,0.152,0,0.003,1.676e-6,3.102e4,6787.475,29.96,0.108,252.13,215.28,2.285,0.646,5.293e7,3517.491,299.009,0.51,0.51,0.31,0.026,0.174,0.019,0.043,6.898e-5,0,0,0,0,8.84e-5,0.028,16.129,204.317,88.517,-0.009,1.925,13.258,981.812,339.333,0.05,0.034
2.72,279.124,223.713,93.627,223.758,93.664,3.246,4.335e-5,3.246,7.651e-4,4.45,2.635,28.61,-80.6,9.791,0.056,0,0.004,2.064e-5,3.093e4,6696.101,29.842,0.108,252.645,214.951,2.337,0.66,5.402e7,3513.099,313.228,0.513,0.513,0.309,0.027,0.177,0.007,0.016,-3.703e-4,0,0,0,0,1.177e-4,0.029,16.129,204.317,88.448,-0.008,1.826,13.186,980.513,339.289,0.05,0.034
2.77,290.427,228.382,93.273,228.428,93.319,3.472,3.77e-5,3.472,6.221e-4,4.588,2.904,28.61,-80.6,9.791,0.001,1.148e-8,-0.004,4.245e-4,3.084e4,6604.867,29.723,0.108,252.755,214.621,2.364,0.673,5.51e7,3507.613,327.863,0.516,0.516,0.309,0.028,0.179,1.53e-4,8.79e-4,-4.664e-4,0,0,0,0,-1.28e-4,0.029,16.129,204.317,88.371,-0.007,1.901,13.112,979.188,339.245,0.05,0.035
2.82,301.962,233.03,92.866,233.078,92.922,3.705,3.119e-5,3.705,4.822e-4,4.741,3.238,28.61,-80.6,9.791,0.08,-1.029e-8,-0.004,2.385e-5,3.075e4,6513.795,29.604,0.108,252.729,214.289,2.383,0.687,5.617e7,3501.026,342.883,0.519,0.519,0.308,0.029,0.181,0.01,0.024,-3.766e-5,0,0,0,0,-1.071e-4,0.03,16.129,204.317,88.294,-0.002,1.867,13.037,977.835,339.199,0.05,0.035
2.87,313.729,237.655,92.408,237.706,92.475,3.947,2.495e-5,3.947,3.622e-4,4.911,3.53,28.61,-80.6,9.791,0.147,9.965e-9,-0.003,-6.282e-7,3.066e4,6422.939,29.484,0.107,252.555,213.955,2.393,0.701,5.723e7,3493.355,358.296,0.522,0.522,0.307,0.031,0.184,0.018,0.044,3.065e-4,0,0,0,0,-5.646e-5,0.03,16.129,204.317,88.23,0.005,1.817,12.961,976.455,339.153,0.05,0.035
2.92,325.727,242.256,91.904,242.31,91.976,4.197,2.155e-5,4.197,2.942e-4,5.092,3.651,28.61,-80.6,9.791,0.162,-5.413e-9,-0.002,1.79e-5,3.057e4,6332.303,29.364,0.107,252.595,213.621,2.416,0.715,5.828e7,3484.607,374.095,0.525,0.525,0.307,0.032,0.186,0.02,0.049,-4.565e-4,0,0,0,0,-1.455e-5,0.031,16.129,204.317,88.189,0.011,1.879,12.883,975.048,339.106,0.05,0.036
2.97,337.954,246.83,91.352,246.886,91.425,4.456,2.267e-5,4.456,2.915e-4,5.274,3.64,28.61,-80.6,9.791,0.149,0,-8.718e-5,-3.117e-6,3.048e4,6241.911,29.244,0.107,252.761,213.286,2.447,0.728,5.932e7,3474.776,390.272,0.528,0.528,0.306,0.033,0.189,0.018,0.045,4.968e-4,0,0,0,0,-4.422e-8,0.032,16.129,204.317,88.175,0.012,1.949,12.803,973.614,339.058,0.05,0.036
3.02,350.409,251.373,90.75,251.432,90.821,4.724,2.899e-5,4.724,3.516e-4,5.454,3.592,28.61,-80.6,9.791,0.142,0,0.001,7.032e-7,3.039e4,6151.824,29.123,0.107,252.904,212.95,2.477,0.742,6.036e7,3463.883,406.824,0.531,0.532,0.305,0.035,0.192,0.018,0.043,3.851e-4,0,0,0,0,9.899e-6,0.032,16.129,204.317,88.186,0.009,1.884,12.722,972.153,339.009,0.05,0.036
3.07,363.091,255.885,90.098,255.947,90.166,5.001,3.896e-5,5.001,4.464e-4,5.631,3.498,28.61,-80.6,9.791,0.134,0,0.003,-2.703e-5,3.03e4,6062.038,29.002,0.107,253.044,212.612,2.507,0.755,6.138e7,3451.936,423.754,0.535,0.535,0.305,0.036,0.194,0.017,0.042,3.238e-4,0,0,0,0,4.324e-5,0.033,16.129,204.317,88.224,-0.001,1.7,12.64,970.666,338.959,0.05,0.037
3.12,375.997,260.361,89.398,260.426,89.457,5.287,4.892e-5,5.287,5.301e-4,5.801,3.248,28.61,-80.6,9.791,0.095,8.749e-9,0.004,-2.547e-5,3.021e4,5972.575,28.881,0.107,253.321,212.275,2.545,0.769,6.239e7,3438.934,441.07,0.539,0.539,0.304,0.038,0.197,0.012,0.029,-3.127e-4,0,0,0,0,9.268e-5,0.033,16.129,204.317,88.288,-0.015,1.549,12.556,969.152,338.908,0.05,0.037
3.17,389.12,264.552,83.663,264.619,83.704,5.581,5.41e-5,5.581,5.554e-4,5.945,2.63,28.61,-80.6,9.791,0.002,2.036e-8,0.004,-0.003,3.012e4,5889.346,28.768,0.107,252.825,211.958,2.534,0.781,6.332e7,3274.115,457.765,0.542,0.542,0.303,0.039,0.199,1.874e-4,7.822e-4,4.93e-4,0,0,0,0,8.423e-5,0.034,16.129,204.317,88.371,-0.025,1.577,12.471,967.613,338.856,0.05,0.038
3.22,402.413,267.17,52.261,267.238,52.276,5.88,5.162e-5,5.88,5.029e-4,6.019,1.282,28.61,-80.6,9.791,0.102,1.868e-8,-0.004,-5.254e-5,3.006e4,5826.711,28.682,0.107,253.502,211.719,2.591,0.789,6.388e7,2334.022,468.269,0.544,0.544,0.303,0.041,0.201,0.013,0.032,2.173e-4,0,0,0,0,-8.296e-5,0.034,16.129,204.317,88.453,-0.032,1.682,12.384,966.054,338.804,0.05,0.038
3.27,415.835,269.705,50.59,269.774,50.598,6.182,4.064e-5,6.182,3.766e-4,6.073,0.92,28.61,-80.6,9.791,0.169,5.189e-9,-0.002,-2.907e-5,3e4,5767.13,28.6,0.107,253.269,211.491,2.59,0.797,6.442e7,2290.289,478.611,0.547,0.547,0.302,0.042,0.202,0.021,0.054,-2.974e-4,0,0,0,0,-2.889e-5,0.035,16.129,204.317,88.513,-0.029,1.733,12.297,964.48,338.751,0.05,0.039
3.32,429.383,272.216,50.098,272.284,50.103,6.487,2.233e-5,6.487,1.972e-4,6.113,0.743,28.61,-80.6,9.791,0.204,0,7.111e-5,-3.206e-5,2.994e4,5707.775,28.518,0.107,253.183,211.263,2.599,0.804,6.495e7,2282.265,489.034,0.549,0.549,0.302,0.043,0.204,0.025,0.066,6.714e-5,0,0,0,0,2.419e-8,0.035,16.129,204.317,88.534,-0.018,1.827,12.209,962.891,338.698,0.05,0.039
3.37,443.056,274.701,49.578,274.77,49.585,6.794,2.979e-7,6.794,2.513e-6,6.15,0.853,28.61,-80.6,9.791,0.174,-8.889e-9,0.003,-4.385e-5,2.988e4,5648.635,28.437,0.107,253.376,211.034,2.625,0.812,6.547e7,2273.718,499.49,0.551,0.551,0.302,0.044,0.206,0.022,0.057,-2.23e-4,0,0,0,0,3.38e-5,0.035,16.129,204.317,88.509,-0.002,1.839,12.12,961.287,338.644,0.05,0.04
3.42,456.853,277.158,49.03,277.228,49.044,7.102,-2.092e-5,7.102,-1.688e-4,6.201,1.181,28.61,-80.6,9.791,0.1,1.219e-8,0.004,-3.319e-5,2.982e4,5589.72,28.355,0.107,253.757,210.806,2.663,0.819,6.598e7,2264.649,510.002,0.554,0.554,0.301,0.046,0.207,0.012,0.033,2.898e-4,0,0,0,0,9.197e-5,0.035,16.129,204.317,88.442,0.01,1.814,12.03,959.669,338.589,0.05,0.04
3.47,470.771,279.587,48.457,279.658,48.482,7.414,-3.7e-5,7.414,-2.859e-4,6.27,1.548,28.61,-80.6,9.791,0.024,-2.412e-8,0.005,-1.195e-4,2.977e4,5531.074,28.273,0.107,254.131,210.577,2.7,0.826,6.648e7,2255.069,520.62,0.556,0.556,0.301,0.047,0.209,0.003,0.008,-6.87e-5,0,0,0,0,1.284e-4,0.036,16.129,204.317,88.351,0.016,1.884,11.94,958.036,338.535,0.05,0.04
3.52,484.811,281.987,47.861,282.059,47.899,7.73,-4.599e-5,7.73,-3.409e-4,6.356,1.906,28.61,-80.6,9.791,0.047,1.058e-8,-0.005,-6.801e-5,2.971e4,5472.681,28.191,0.107,254.162,210.349,2.716,0.833,6.698e7,2244.982,531.333,0.559,0.559,0.3,0.048,0.21,0.006,0.016,-8.518e-5,0,0,0,0,-1.171e-4,0.036,16.129,204.317,88.255,0.018,1.991,11.849,956.39,338.479,0.05,0.041
3.57,498.969,284.356,47.242,284.429,47.294,8.05,-4.701e-5,8.05,-3.346e-4,6.46,2.236,28.61,-80.6,9.791,0.112,-1.201e-8,-0.004,-1.481e-5,2.965e4,5414.552,28.11,0.107,253.925,210.121,2.716,0.841,6.746e7,2234.391,542.127,0.562,0.562,0.3,0.05,0.212,0.014,0.038,-3.37e-4,0,0,0,0,-6.982e-5,0.036,16.129,204.317,88.172,0.013,2.049,11.757,954.729,338.423,0.05,0.041
3.62,513.246,286.692,46.602,286.768,46.667,8.376,-4.204e-5,8.376,-2.876e-4,6.578,2.452,28.61,-80.6,9.791,0.154,9.37e-9,-0.002,-3.088e-5,2.959e4,5356.733,28.028,0.107,253.808,209.893,2.723,0.848,6.794e7,2223.305,553.029,0.564,0.564,0.3,0.051,0.213,0.019,0.053,-1.573e-4,0,0,0,0,-1.488e-5,0.037,16.129,204.317,88.119,0.005,2.055,11.664,953.129,338.367,0.05,0.042
3.67,527.637,288.946,44.934,289.023,44.998,8.708,-3.373e-5,8.708,-2.219e-4,6.699,2.382,28.61,-80.6,9.791,0.146,6.106e-9,5.372e-4,-1.88e-5,2.954e4,5301.523,27.95,0.107,253.908,209.675,2.742,0.854,6.84e7,2181.594,563.731,0.567,0.567,0.299,0.053,0.215,0.018,0.05,-2.266e-4,0,0,0,0,1.225e-6,0.037,16.129,204.317,88.108,-0.001,2.108,11.57,951.521,338.311,0.05,0.043
3.72,542.108,289.932,19.672,290.011,19.713,9.045,-2.511e-5,9.045,-1.591e-4,6.771,1.27,28.61,-80.6,9.791,0.083,0,0.002,-3.205e-5,2.95e4,5262.574,27.895,0.106,254.205,209.52,2.77,0.858,6.856e7,1437.952,568.085,0.568,0.568,0.299,0.054,0.216,0.01,0.028,1.18e-4,0,0,0,0,2.468e-5,0.037,16.129,204.317,88.137,-0.01,2.244,11.476,949.904,338.254,0.05,0.043
3.77,556.624,290.708,15.487,290.788,15.505,9.384,-1.919e-5,9.384,-1.172e-4,6.817,0.756,28.61,-80.6,9.791,0.002,0,-0.003,-7.454e-4,2.946e4,5228.336,27.846,0.106,255.158,209.384,2.838,0.86,6.867e7,1316.529,571.4,0.569,0.569,0.299,0.055,0.216,2.093e-4,6.742e-4,1.802e-5,0,0,0,0,-3.463e-5,0.037,16.129,204.317,88.188,-0.015,2.399,11.382,948.282,338.196,0.05,0.044
3.82,571.179,291.471,15.22,291.551,15.228,9.726,-1.761e-5,9.726,-1.037e-4,6.847,0.499,28.61,-80.6,9.79,0.055,0,-0.002,-1.978e-5,2.943e4,5194.24,27.797,0.106,254.399,209.248,2.799,0.862,6.877e7,1310.855,574.66,0.571,0.571,0.299,0.055,0.217,0.007,0.019,8.151e-5,0,0,0,0,-2.432e-5,0.037,16.129,204.317,88.239,-0.014,2.406,11.287,946.656,338.139,0.05,0.044
3.87,585.771,292.22,14.944,292.301,14.948,10.069,-1.963e-5,10.069,-1.117e-4,6.868,0.335,28.61,-80.6,9.79,0.087,0,-0.001,6.701e-6,2.939e4,5160.29,27.749,0.106,254.273,209.113,2.8,0.865,6.887e7,1304.969,577.868,0.572,0.572,0.299,0.056,0.217,0.011,0.031,-1.146e-4,0,0,0,0,-7.836e-6,0.037,16.129,204.317,88.273,-0.01,2.39,11.192,945.026,338.082,0.05,0.044
3.92,600.401,292.955,14.66,293.036,14.662,10.413,-2.384e-5,10.413,-1.312e-4,6.881,0.265,28.61,-80.6,9.79,0.1,0,3.092e-4,-9.906e-6,2.936e4,5126.512,27.7,0.106,254.237,208.977,2.806,0.867,6.897e7,1298.874,581.025,0.573,0.573,0.298,0.056,0.218,0.012,0.035,-9.877e-5,0,0,0,0,3.948e-7,0.038,16.129,204.317,88.283,-0.006,2.421,11.097,943.391,338.024,0.05,0.045
3.97,615.066,293.675,14.366,293.756,14.369,10.757,-2.88e-5,10.757,-1.534e-4,6.896,0.328,28.61,-80.6,9.79,0.085,0,0.002,-1.492e-5,2.933e4,5092.891,27.652,0.106,254.323,208.842,2.82,0.869,6.906e7,1292.573,584.115,0.574,0.574,0.298,0.057,0.218,0.011,0.029,5.213e-6,0,0,0,0,1.231e-5,0.038,16.129,204.317,88.263,3.539e-5,2.444,11.002,941.753,337.966,0.05,0.045
4.02,629.768,294.38,14.064,294.462,14.071,11.102,-3.237e-5,11.102,-1.671e-4,6.915,0.452,28.61,-80.6,9.79,0.058,7.824e-9,0.003,-5.506e-6,2.929e4,5059.433,27.604,0.106,254.456,208.708,2.836,0.872,6.914e7,1286.067,587.158,0.575,0.575,0.298,0.058,0.219,0.007,0.021,-1.761e-5,0,0,0,0,3.742e-5,0.038,16.129,204.317,88.218,0.005,2.541,10.907,940.11,337.908,0.05,0.045
4.07,644.504,295.07,13.752,295.152,13.77,11.449,-3.274e-5,11.449,-1.638e-4,6.943,0.713,28.61,-80.6,9.79,0.002,1.512e-8,0.004,-8.946e-4,2.926e4,5026.163,27.556,0.106,254.197,208.573,2.829,0.874,6.923e7,1279.36,590.127,0.576,0.576,0.298,0.058,0.219,1.946e-4,2.881e-4,-3.148e-4,0,0,0,0,5.096e-5,0.038,16.129,204.317,88.157,0.01,2.556,10.811,938.464,337.85,0.05,0.046
4.12,659.274,295.744,13.431,295.826,13.474,11.797,-2.834e-5,11.797,-1.376e-4,6.987,1.068,28.61,-80.6,9.79,0.076,-1.082e-8,-0.003,4.696e-7,2.923e4,4993.065,27.508,0.106,254.432,208.44,2.852,0.876,6.93e7,1272.455,593.027,0.577,0.577,0.298,0.059,0.22,0.01,0.028,-2.437e-4,0,0,0,0,-3.724e-5,0.038,16.129,204.317,88.095,0.009,2.445,10.715,936.813,337.792,0.05,0.046
4.17,674.078,296.401,13.108,296.485,13.174,12.148,-1.961e-5,12.148,-9.248e-5,7.049,1.323,28.61,-80.6,9.79,0.133,0,-0.001,-1.312e-6,2.919e4,4960.145,27.46,0.106,254.203,208.306,2.846,0.878,6.938e7,1265.352,595.867,0.578,0.578,0.298,0.06,0.22,0.017,0.047,7.673e-5,0,0,0,0,-4.752e-6,0.038,16.129,204.317,88.057,0.005,2.308,10.618,935.159,337.734,0.05,0.047
4.22,688.914,297.042,12.789,297.127,12.854,12.502,-8.091e-6,12.502,-3.708e-5,7.116,1.291,28.61,-80.6,9.79,0.127,0,0.001,-2.562e-5,2.916e4,4927.43,27.413,0.106,254.243,208.174,2.856,0.88,6.945e7,1258.057,598.634,0.579,0.579,0.298,0.06,0.221,0.016,0.045,3.48e-4,0,0,0,0,6.645e-6,0.038,16.129,204.317,88.059,-0.002,2.285,10.522,933.502,337.675,0.05,0.047
4.27,703.78,297.595,11.021,297.681,11.068,12.859,3.249e-6,12.859,1.448e-5,7.172,1.018,28.61,-80.6,9.79,0.082,1.128e-8,0.003,-2.897e-5,2.913e4,4898.184,27.37,0.106,254.445,208.055,2.876,0.882,6.949e7,1207.899,600.912,0.58,0.58,0.298,0.061,0.221,0.01,0.03,4.7e-4,0,0,0,0,3.575e-5,0.038,16.129,204.317,88.099,-0.014,2.279,10.425,931.841,337.617,0.05,0.047
4.29,709.685,297.273,-16.173,297.359,16.173,13.002,6.711e-6,13.002,2.957e-5,7.174,0.026,28.61,-80.6,9.79,0.062,0,0.004,-6.285e-5,2.913e4,4891.737,27.361,0.106,254.518,208.028,2.882,0.881,6.939e7,413.08,598.802,0.579,0.579,0.298,0.061,0.221,0.008,0.022,-3.768e-4,0,0,0,0,5.143e-5,0.038,16.129,204.317,88.123,-0.019,2.246,10.387,931.181,337.593,0.02,0.048
4.32,718.525,296.372,-30.156,296.458,30.162,13.215,1.019e-5,13.215,4.418e-5,7.159,0.563,28.61,-80.6,9.79,0.029,0,0.004,-1.246e-4,2.913e4,4891.737,27.361,0.106,254.598,208.028,2.887,0.878,6.913e7,0,593.355,0.578,0.578,0.298,0.06,0.22,0.004,0.01,2.171e-4,0,0,0,0,6.602e-5,0.038,16.129,204.317,88.165,-0.025,2.189,10.33,930.194,337.559,0.03,0.048
4.364,731.735,295.031,-29.876,295.117,29.885,13.534,1.076e-5,13.534,4.555e-5,7.129,0.757,28.61,-80.6,9.79,0.023,0,-0.004,-1.569e-4,2.913e4,4891.737,27.361,0.106,254.733,208.028,2.896,0.875,6.874e7,0,585.364,0.576,0.576,0.298,0.059,0.219,0.003,0.008,1.133e-4,0,0,0,0,-6.717e-5,0.038,16.129,204.317,88.231,-0.027,2.104,10.244,928.718,337.507,0.045,0.049
4.414,746.449,293.545,-29.571,293.63,29.587,13.89,5.005e-6,13.89,2.065e-5,7.086,0.967,28.61,-80.6,9.79,0.079,0,-0.003,-4.967e-5,2.913e4,4891.737,27.361,0.106,254.369,208.028,2.873,0.87,6.832e7,0,576.671,0.574,0.574,0.298,0.057,0.218,0.01,0.029,-2.152e-4,0,0,0,0,-4.205e-5,0.038,16.129,204.317,88.298,-0.017,2.052,10.148,927.074,337.449,0.05,0.049
4.464,761.09,292.074,-29.276,292.158,29.298,14.243,-4.211e-6,14.243,-1.694e-5,7.032,1.14,28.61,-80.6,9.79,0.126,0,-0.001,-1.775e-5,2.913e4,4891.737,27.361,0.106,254.108,208.028,2.857,0.866,6.79e7,0,568.229,0.572,0.572,0.298,0.056,0.218,0.016,0.045,3.205e-4,0,0,0,0,-8.582e-6,0.037,16.129,204.317,88.341,-0.002,2.081,10.053,925.438,337.391,0.05,0.05
4.514,775.657,290.617,-28.993,290.701,29.016,14.593,-1.231e-5,14.593,-4.835e-5,6.974,1.145,28.61,-80.6,9.79,0.131,0,8.269e-4,-4.545e-5,2.913e4,4891.737,27.361,0.106,254.041,208.028,2.853,0.862,6.748e7,0,559.988,0.57,0.57,0.299,0.055,0.217,0.016,0.047,4.361e-4,0,0,0,0,2.869e-6,0.037,16.129,204.317,88.346,0.014,2.093,9.958,923.81,337.334,0.05,0.05
4.564,790.152,289.174,-28.721,289.257,28.737,14.94,-1.524e-5,14.94,-5.843e-5,6.922,0.961,28.61,-80.6,9.79,0.089,0,0.002,-3.303e-5,2.913e4,4891.737,27.361,0.106,254.173,208.028,2.861,0.858,6.706e7,0,551.924,0.569,0.569,0.299,0.054,0.216,0.011,0.031,-9.921e-5,0,0,0,0,2.588e-5,0.037,16.129,204.317,88.314,0.028,2.034,9.864,922.191,337.276,0.05,0.05
4.614,804.575,287.745,-28.456,287.827,28.468,15.285,-9.453e-6,15.285,-3.543e-5,6.876,0.81,28.61,-80.6,9.79,0.05,1.905e-8,0.004,-5.756e-5,2.913e4,4891.737,27.361,0.106,254.273,208.028,2.867,0.854,6.666e7,0,544.089,0.567,0.567,0.299,0.053,0.215,0.006,0.018,4.031e-5,0,0,0,0,6.017e-5,0.037,16.129,204.317,88.256,0.031,2.138,9.77,920.58,337.22,0.05,0.051
4.664,818.926,286.328,-28.202,286.41,28.207,15.628,5.978e-6,15.628,2.192e-5,6.843,0.52,28.61,-80.6,9.79,0.025,0,-0.004,-1.285e-4,2.913e4,4891.737,27.361,0.106,254.462,208.028,2.879,0.85,6.625e7,0,536.426,0.565,0.565,0.299,0.052,0.214,0.003,0.009,2.263e-4,0,0,0,0,-6.713e-5,0.037,16.129,204.317,88.184,0.027,2.1,9.677,918.976,337.163,0.05,0.052
4.714,833.208,284.924,-27.954,285.006,27.955,15.97,2.961e-5,15.97,1.062e-4,6.825,0.262,28.61,-80.6,9.79,0.092,0,-0.003,-2.065e-5,2.913e4,4891.737,27.361,0.106,254.069,208.028,2.855,0.846,6.585e7,0,528.956,0.564,0.564,0.3,0.051,0.213,0.011,0.033,-4.876e-4,0,0,0,0,-3.78e-5,0.036,16.129,204.317,88.121,0.021,2.055,9.584,917.381,337.107,0.05,0.052
4.764,847.419,283.533,-27.707,283.615,27.707,16.311,5.992e-5,16.311,2.105e-4,6.815,0.164,28.61,-80.6,9.79,0.119,0,-0.001,-1.179e-5,2.913e4,4891.737,27.361,0.106,253.909,208.028,2.845,0.842,6.546e7,0,521.663,0.562,0.562,0.3,0.05,0.212,0.015,0.042,-1.733e-4,0,0,0,0,-7.148e-6,0.036,16.129,204.317,88.082,0.019,2.083,9.492,915.793,337.051,0.05,0.053
4.814,861.561,282.154,-27.461,282.236,27.461,16.651,9.591e-5,16.651,3.3e-4,6.807,0.182,28.61,-80.6,9.79,0.114,0,4.976e-4,4.467e-6,2.913e4,4891.737,27.361,0.106,253.889,208.028,2.843,0.838,6.506e7,0,514.52,0.561,0.561,0.3,0.049,0.211,0.014,0.04,3.812e-4,0,0,0,0,1.102e-6,0.036,16.129,204.317,88.076,0.017,2.106,9.4,914.213,336.995,0.05,0.053
4.864,875.635,280.787,-27.216,280.869,27.218,16.991,1.364e-4,16.991,4.601e-4,6.796,0.291,28.61,-80.6,9.79,0.084,1.066e-8,0.002,-3.213e-6,2.913e4,4891.737,27.361,0.106,253.981,208.028,2.849,0.834,6.467e7,0,507.522,0.559,0.559,0.3,0.048,0.21,0.01,0.029,2.088e-4,0,0,0,0,2.053e-5,0.036,16.129,204.317,88.101,0.012,2.103,9.308,912.64,336.94,0.05,0.054
4.914,889.64,279.432,-26.975,279.514,26.979,17.331,1.796e-4,17.331,5.938e-4,6.775,0.476,28.61,-80.6,9.789,0.03,5.545e-9,0.003,-2.27e-5,2.913e4,4891.737,27.361,0.106,254.167,208.028,2.861,0.83,6.429e7,0,500.678,0.558,0.558,0.301,0.048,0.21,0.004,0.01,-1.367e-5,0,0,0,0,3.528e-5,0.036,16.129,204.317,88.147,0.003,2.122,9.217,911.076,336.885,0.05,0.054
4.964,903.578,278.089,-26.741,278.171,26.747,17.669,2.232e-4,17.669,7.238e-4,6.75,0.585,28.61,-80.6,9.789,0.005,-9.22e-9,-0.003,-1.353e-4,2.913e4,4891.737,27.361,0.106,254.364,208.028,2.873,0.826,6.391e7,0,493.965,0.556,0.556,0.301,0.047,0.209,5.629e-4,0.002,-4.439e-4,0,0,0,0,-4.704e-5,0.036,16.129,204.317,88.203,-0.004,1.998,9.127,909.518,336.83,0.05,0.054
5.014,917.449,276.758,-26.509,276.839,26.522,18.005,2.655e-4,18.005,8.449e-4,6.714,0.825,28.61,-80.6,9.789,0.075,0,-0.002,-7.636e-6,2.913e4,4891.737,27.361,0.106,253.918,208.028,2.845,0.822,6.353e7,0,487.431,0.555,0.555,0.301,0.046,0.208,0.009,0.026,-1.957e-4,0,0,0,0,-2.811e-5,0.035,16.129,204.317,88.255,-0.007,2.09,9.037,907.969,336.775,0.05,0.055
5.064,931.254,275.438,-26.287,275.519,26.302,18.34,3.058e-4,18.34,9.553e-4,6.67,0.892,28.61,-80.6,9.789,0.098,0,-0.001,1.324e-6,2.913e4,4891.737,27.361,0.106,253.78,208.028,2.837,0.818,6.315e7,0,481.007,0.554,0.554,0.301,0.045,0.207,0.012,0.035,-1.934e-4,0,0,0,0,-6.337e-6,0.035,16.129,204.317,88.289,-0.009,2.038,8.947,906.426,336.721,0.05,0.055
5.114,944.993,274.129,-26.071,274.209,26.085,18.672,3.435e-4,18.672,0.001,6.626,0.855,28.61,-80.6,9.789,0.092,0,1.399e-4,-1.036e-5,2.913e4,4891.737,27.361,0.106,253.769,208.028,2.836,0.815,6.278e7,0,474.7,0.553,0.553,0.302,0.045,0.206,0.011,0.033,4.031e-4,0,0,0,0,9.236e-8,0.035,16.129,204.317,88.297,-0.007,1.963,8.858,904.891,336.667,0.05,0.056
5.164,958.667,272.831,-25.861,272.91,25.873,19.003,3.797e-4,19.003,0.001,6.585,0.798,28.61,-80.6,9.789,0.078,0,0.001,-3.255e-5,2.913e4,4891.737,27.361,0.106,253.786,208.028,2.837,0.811,6.242e7,0,468.527,0.551,0.551,0.302,0.044,0.205,0.01,0.027,-3.907e-4,0,0,0,0,9.587e-6,0.035,16.129,204.317,88.282,0.007,1.969,8.769,903.364,336.613,0.05,0.056
5.214,972.276,271.543,-25.656,271.622,25.665,19.331,4.174e-4,19.331,0.001,6.548,0.662,28.61,-80.6,9.789,0.04,0,0.002,-6.9e-5,2.913e4,4891.737,27.361,0.106,253.887,208.028,2.843,0.807,6.205e7,0,462.466,0.55,0.55,0.302,0.044,0.205,0.005,0.014,-4.735e-4,0,0,0,0,2.371e-5,0.035,16.129,204.317,88.248,0.024,1.941,8.68,901.843,336.559,0.05,0.056
5.264,985.822,270.265,-25.456,270.344,25.462,19.658,4.608e-4,19.658,0.001,6.518,0.555,28.61,-80.6,9.789,0.008,0,0.003,-2.609e-4,2.913e4,4891.737,27.361,0.106,253.796,208.028,2.838,0.804,6.169e7,0,456.536,0.549,0.549,0.302,0.043,0.204,0.001,0.003,-3.399e-4,0,0,0,0,3.046e-5,0.035,16.129,204.317,88.205,0.035,1.99,8.592,900.33,336.506,0.05,0.057
5.314,999.303,268.997,-25.26,269.076,25.264,19.983,5.121e-4,19.983,0.001,6.493,0.431,28.61,-80.6,9.789,0.029,0,-0.002,-7.271e-5,2.913e4,4891.737,27.361,0.106,253.964,208.028,2.848,0.8,6.133e7,0,450.717,0.548,0.548,0.302,0.042,0.203,0.004,0.01,-1.938e-4,0,0,0,0,-3.051e-5,0.034,16.129,204.317,88.159,0.033,2.018,8.505,898.824,336.453,0.05,0.057
5.364,1012.721,267.739,-25.07,267.817,25.071,20.307,5.71e-4,20.307,0.002,6.477,0.266,28.61,-80.6,9.789,0.078,0,-0.002,-2.357e-5,2.913e4,4891.737,27.361,0.106,253.673,208.028,2.83,0.796,6.098e7,0,445.032,0.547,0.547,0.303,0.042,0.202,0.01,0.027,-8.332e-5,0,0,0,0,-1.268e-5,0.034,16.129,204.317,88.121,0.028,1.938,8.417,897.392,336.4,0.05,0.058
5.414,1026.077,266.49,-24.879,266.569,24.88,20.631,6.36e-4,20.631,0.002,6.463,0.274,28.61,-80.6,9.789,0.076,0,-6.677e-4,-1.18e-5,2.913e4,4891.737,27.361,0.106,253.638,208.028,2.828,0.793,6.064e7,0,439.467,0.546,0.546,0.303,0.041,0.202,0.009,0.027,-3.965e-4,0,0,0,0,-2.225e-6,0.034,16.129,204.317,88.1,0.021,2.022,8.33,895.972,336.347,0.05,0.058
5.464,1039.371,265.251,-24.689,265.33,24.691,20.953,7.053e-4,20.953,0.002,6.449,0.308,28.61,-80.6,9.789,0.065,0,3.191e-4,-7.784e-6,2.913e4,4891.737,27.361,0.106,253.649,208.028,2.828,0.789,6.029e7,0,433.993,0.545,0.545,0.303,0.041,0.201,0.008,0.023,1.915e-4,0,0,0,0,5.129e-7,0.034,16.129,204.317,88.098,0.016,2.058,8.244,894.558,336.295,0.05,0.058
5.514,1052.602,264.021,-24.501,264.1,24.505,21.275,7.771e-4,21.275,0.002,6.431,0.427,28.61,-80.6,9.789,0.028,0,9.434e-4,-1.831e-5,2.913e4,4891.737,27.361,0.106,253.772,208.028,2.836,0.786,5.995e7,0,428.623,0.544,0.544,0.303,0.04,0.2,0.003,0.01,4.802e-4,0,0,0,0,4.525e-6,0.034,16.129,204.317,88.11,0.007,2.155,8.158,893.15,336.243,0.05,0.059
5.564,1065.773,262.801,-24.315,262.879,24.322,21.596,8.491e-4,21.596,0.002,6.405,0.566,28.61,-80.6,9.789,0.018,0,-9.236e-4,-4.104e-6,2.913e4,4891.737,27.361,0.106,253.846,208.028,2.841,0.782,5.961e7,0,423.353,0.543,0.543,0.303,0.04,0.2,0.002,0.007,-3.751e-4,0,0,0,0,-4.378e-6,0.034,16.129,204.317,88.128,-0.004,2.268,8.072,891.749,336.191,0.05,0.059
5.614,1078.883,261.59,-24.136,261.668,24.143,21.916,9.186e-4,21.916,0.002,6.376,0.599,28.61,-80.6,9.789,0.031,0,-6.415e-4,7.852e-6,2.913e4,4891.737,27.361,0.106,253.76,208.028,2.835,0.779,5.928e7,0,418.159,0.542,0.542,0.304,0.039,0.199,0.004,0.01,-2.026e-4,0,0,0,0,-2.132e-6,0.034,16.129,204.317,88.143,-0.016,2.248,7.987,890.355,336.139,0.05,0.059
5.664,1091.932,260.387,-23.96,260.465,23.968,22.234,9.829e-4,22.234,0.003,6.346,0.609,28.61,-80.6,9.789,0.037,0,-2.761e-4,-4.108e-6,2.913e4,4891.737,27.361,0.106,253.707,208.028,2.832,0.775,5.895e7,0,413.055,0.541,0.541,0.304,0.039,0.198,0.005,0.013,-4.642e-4,0,0,0,0,-3.986e-7,0.033,16.129,204.317,88.151,-0.026,2.227,7.902,888.967,336.088,0.05,0.06
5.714,1104.922,259.194,-23.788,259.271,23.796,22.55,0.001,22.55,0.003,6.315,0.606,28.61,-80.6,9.789,0.038,0,3.427e-4,2.575e-6,2.913e4,4891.737,27.361,0.106,253.672,208.028,2.83,0.772,5.862e7,0,408.04,0.54,0.54,0.304,0.038,0.197,0.005,0.013,-5.575e-5,0,0,0,0,6.196e-7,0.033,16.129,204.317,88.15,-0.026,2.23,7.818,887.585,336.037,0.05,0.06
5.764,1117.852,258.009,-23.623,258.085,23.627,22.865,0.001,22.865,0.003,6.288,0.449,28.61,-80.6,9.789,0.01,0,-4.867e-4,6.806e-5,2.913e4,4891.737,27.361,0.106,253.522,208.028,2.821,0.768,5.829e7,0,403.082,0.539,0.539,0.304,0.038,0.197,0.001,0.004,1.524e-4,0,0,0,0,-1.261e-6,0.033,16.129,204.317,88.142,-0.016,2.03,7.734,886.21,335.986,0.05,0.06
5.814,1130.723,256.831,-23.459,256.908,23.461,23.179,0.001,23.179,0.003,6.27,0.345,28.61,-80.6,9.789,0.042,0,-3.253e-5,2.356e-5,2.913e4,4891.737,27.361,0.106,253.512,208.028,2.82,0.765,5.796e7,0,398.22,0.538,0.538,0.304,0.037,0.196,0.005,0.014,-3.05e-4,0,0,0,0,-5.685e-9,0.033,16.129,204.317,88.137,-0.002,1.891,7.65,884.841,335.935,0.05,0.061
5.864,1143.535,255.663,-23.294,255.739,23.297,23.492,0.001,23.492,0.003,6.251,0.385,28.61,-80.6,9.789,0.028,0,3.097e-4,3.668e-5,2.913e4,4891.737,27.361,0.106,253.591,208.028,2.825,0.762,5.764e7,0,393.455,0.537,0.537,0.305,0.037,0.195,0.003,0.009,-2.788e-4,0,0,0,0,5.201e-7,0.033,16.129,204.317,88.139,0.016,1.931,7.567,883.478,335.885,0.05,0.061
5.914,1156.289,254.502,-23.132,254.578,23.136,23.804,0.001,23.804,0.003,6.232,0.393,28.61,-80.6,9.789,0.023,0,6.538e-4,5.86e-5,2.913e4,4891.737,27.361,0.106,253.625,208.028,2.827,0.758,5.732e7,0,388.759,0.536,0.536,0.305,0.037,0.195,0.003,0.009,1.95e-4,0,0,0,0,2.339e-6,0.033,16.129,204.317,88.148,0.034,1.893,7.484,882.121,335.834,0.05,0.061
5.964,1168.985,253.349,-22.972,253.426,22.976,24.116,0.001,24.116,0.003,6.211,0.43,28.61,-80.6,9.789,0.009,0,8.343e-4,1.235e-4,2.913e4,4891.737,27.361,0.106,253.901,208.028,2.844,0.755,5.7e7,0,384.143,0.535,0.535,0.305,0.036,0.194,0.001,0.003,4.951e-4,0,0,0,0,3.844e-6,0.032,16.129,204.317,88.162,0.045,1.881,7.402,880.77,335.784,0.05,0.062
6.014,1181.624,252.205,-22.815,252.281,22.82,24.426,0.001,24.426,0.003,6.188,0.489,28.61,-80.6,9.789,0.014,0,-7.909e-4,7.85e-5,2.913e4,4891.737,27.361,0.106,253.349,208.028,2.81,0.752,5.669e7,0,379.605,0.534,0.534,0.305,0.036,0.193,0.002,0.005,7.612e-5,0,0,0,0,-3.486e-6,0.032,16.129,204.317,88.177,0.046,1.902,7.319,879.426,335.734,0.05,0.062
6.064,1194.206,251.068,-22.66,251.144,22.666,24.734,0.001,24.734,0.003,6.163,0.515,28.61,-80.6,9.789,0.026,0,-5.163e-4,4.132e-5,2.913e4,4891.737,27.361,0.106,253.368,208.028,2.811,0.748,5.638e7,0,375.136,0.533,0.533,0.305,0.035,0.193,0.003,0.009,1.003e-4,0,0,0,0,-1.499e-6,0.032,16.129,204.317,88.189,0.042,1.888,7.238,878.088,335.685,0.05,0.062
6.114,1206.731,249.939,-22.509,250.014,22.515,25.042,0.002,25.042,0.003,6.138,0.512,28.61,-80.6,9.789,0.027,0,-2.939e-4,3.555e-5,2.913e4,4891.737,27.361,0.106,253.363,208.028,2.811,0.745,5.607e7,0,370.733,0.533,0.533,0.305,0.035,0.192,0.003,0.01,2.001e-4,0,0,0,0,-4.902e-7,0.032,16.129,204.317,88.197,0.034,1.848,7.156,876.755,335.636,0.05,0.063
6.164,1219.2,248.817,-22.359,248.892,22.366,25.348,0.002,25.348,0.004,6.11,0.561,28.61,-80.6,9.788,0.046,0,1.688e-4,1.153e-5,2.913e4,4891.737,27.361,0.106,253.307,208.028,2.807,0.742,5.576e7,0,366.413,0.532,0.532,0.306,0.035,0.192,0.006,0.016,-2.179e-4,0,0,0,0,1.632e-7,0.032,16.129,204.317,88.198,0.022,1.919,7.075,875.429,335.586,0.05,0.063
6.214,1231.613,247.703,-22.213,247.777,22.22,25.653,0.002,25.653,0.004,6.083,0.543,28.61,-80.6,9.788,0.041,0,6.639e-4,3.447e-5,2.913e4,4891.737,27.361,0.106,253.323,208.028,2.808,0.739,5.546e7,0,362.151,0.531,0.531,0.306,0.034,0.191,0.005,0.015,-4.683e-4,0,0,0,0,2.546e-6,0.032,16.129,204.317,88.19,0.008,1.922,6.995,874.109,335.538,0.05,0.063
6.264,1243.97,246.596,-22.07,246.67,22.076,25.956,0.002,25.956,0.004,6.057,0.49,28.61,-80.6,9.788,0.024,0,9.907e-4,4.142e-5,2.913e4,4891.737,27.361,0.106,253.431,208.028,2.815,0.735,5.515e7,0,357.95,0.53,0.53,0.306,0.034,0.19,0.003,0.008,2.994e-5,0,0,0,0,5.721e-6,0.032,16.129,204.317,88.175,-0.007,1.9,6.914,872.794,335.489,0.05,0.064
6.314,1256.272,245.496,-21.929,245.57,21.934,26.259,0.002,26.259,0.004,6.033,0.461,28.61,-80.6,9.788,0.014,0,0.001,9.554e-5,2.913e4,4891.737,27.361,0.106,253.54,208.028,2.822,0.732,5.485e7,0,353.821,0.529,0.529,0.306,0.034,0.19,0.002,0.005,-3.593e-4,0,0,0,0,8.653e-6,0.031,16.129,204.317,88.155,-0.016,1.936,6.834,871.486,335.44,0.05,0.064
6.364,1268.52,244.403,-21.792,244.477,21.795,26.56,0.002,26.56,0.004,6.012,0.396,28.61,-80.6,9.788,0.01,0,-0.001,1.148e-4,2.913e4,4891.737,27.361,0.106,253.159,208.028,2.798,0.729,5.456e7,0,349.748,0.529,0.529,0.306,0.033,0.189,0.001,0.004,8.103e-5,0,0,0,0,-9.084e-6,0.031,16.129,204.317,88.132,-0.019,1.916,6.755,870.183,335.392,0.05,0.064
6.414,1280.713,243.316,-21.655,243.39,21.658,26.86,0.002,26.86,0.004,5.993,0.38,28.61,-80.6,9.788,0.015,0,-9.921e-4,6.965e-5,2.913e4,4891.737,27.361,0.106,253.18,208.028,2.799,0.726,5.426e7,0,345.744,0.528,0.528,0.306,0.033,0.189,0.002,0.005,3.32e-4,0,0,0,0,-5.893e-6,0.031,16.129,204.317,88.111,-0.018,1.962,6.675,868.886,335.344,0.05,0.065
6.464,1292.852,242.237,-21.518,242.311,21.522,27.159,0.002,27.159,0.004,5.972,0.432,28.61,-80.6,9.788,0.004,0,0.001,1.94e-4,2.913e4,4891.737,27.361,0.106,253.79,208.028,2.837,0.723,5.397e7,0,341.81,0.527,0.527,0.307,0.033,0.188,4.726e-4,0.001,-1.973e-4,0,0,0,0,7.017e-6,0.031,16.129,204.317,88.093,-0.013,2.112,6.596,867.595,335.296,0.05,0.065
6.514,1304.937,241.165,-21.386,241.238,21.389,27.457,0.002,27.457,0.004,5.952,0.373,28.61,-80.6,9.788,0.018,0,-9.357e-4,5.093e-5,2.913e4,4891.737,27.361,0.106,253.201,208.028,2.801,0.72,5.368e7,0,337.915,0.526,0.526,0.307,0.032,0.187,0.002,0.006,-9.446e-5,0,0,0,0,-5.335e-6,0.031,16.129,204.317,88.075,-0.003,2.079,6.518,866.309,335.249,0.05,0.065
6.564,1316.968,240.099,-21.254,240.172,21.257,27.754,0.002,27.754,0.005,5.934,0.37,28.61,-80.6,9.788,0.018,0,-7.39e-4,2.897e-5,2.913e4,4891.737,27.361,0.106,253.241,208.028,2.803,0.717,5.339e7,0,334.085,0.526,0.526,0.307,0.032,0.187,0.002,0.006,4.543e-4,0,0,0,0,-3.357e-6,0.031,16.129,204.317,88.059,0.012,2.125,6.44,865.029,335.201,0.05,0.066
6.614,1328.947,239.039,-21.125,239.112,21.128,28.05,0.002,28.05,0.005,5.915,0.363,28.61,-80.6,9.788,0.021,0,-6.204e-4,2.851e-6,2.913e4,4891.737,27.361,0.106,253.255,208.028,2.804,0.714,5.31e7,0,330.309,0.525,0.525,0.307,0.032,0.186,0.003,0.007,-4.554e-4,0,0,0,0,-2.387e-6,0.031,16.129,204.317,88.047,0.025,2.15,6.362,863.755,335.154,0.05,0.066
6.664,1340.872,237.986,-20.998,238.059,21.001,28.346,0.002,28.346,0.005,5.899,0.312,28.61,-80.6,9.788,0.039,0,-2.184e-4,8.443e-6,2.913e4,4891.737,27.361,0.106,253.145,208.028,2.797,0.711,5.281e7,0,326.579,0.524,0.524,0.307,0.031,0.186,0.005,0.013,-1.729e-4,0,0,0,0,-2.984e-7,0.03,16.129,204.317,88.039,0.036,2.083,6.284,862.487,335.107,0.05,0.066
6.714,1352.745,236.939,-20.872,237.012,20.874,28.64,0.002,28.64,0.005,5.882,0.329,28.61,-80.6,9.788,0.031,0,8.457e-5,1.787e-5,2.913e4,4891.737,27.361,0.106,253.177,208.028,2.799,0.708,5.253e7,0,322.91,0.524,0.524,0.307,0.031,0.185,0.004,0.011,3.333e-4,0,0,0,0,4.514e-8,0.03,16.129,204.317,88.038,0.042,2.105,6.207,861.224,335.06,0.05,0.067
6.764,1364.566,235.899,-20.747,235.972,20.75,28.934,0.002,28.934,0.005,5.866,0.337,28.61,-80.6,9.788,0.026,0,4.235e-4,1.166e-5,2.913e4,4891.737,27.361,0.106,253.198,208.028,2.801,0.705,5.225e7,0,319.289,0.523,0.523,0.308,0.031,0.185,0.003,0.009,2.642e-4,0,0,0,0,1.142e-6,0.03,16.129,204.317,88.043,0.044,2.085,6.13,859.966,335.014,0.05,0.067
6.814,1376.335,234.865,-20.623,234.937,20.627,29.227,0.003,29.227,0.005,5.848,0.363,28.61,-80.6,9.788,0.014,0,5.478e-4,2.941e-5,2.913e4,4891.737,27.361,0.106,253.271,208.028,2.805,0.702,5.197e7,0,315.721,0.522,0.522,0.308,0.031,0.184,0.002,0.004,4.026e-4,0,0,0,0,1.928e-6,0.03,16.129,204.317,88.052,0.041,2.084,6.054,858.714,334.968,0.05,0.067
6.864,1388.053,233.836,-20.503,233.909,20.506,29.519,0.003,29.519,0.005,5.831,0.349,28.61,-80.6,9.788,0.017,0,7.722e-4,2.351e-5,2.913e4,4891.737,27.361,0.106,253.188,208.028,2.8,0.699,5.169e7,0,312.195,0.522,0.522,0.308,0.03,0.183,0.002,0.006,5.825e-5,0,0,0,0,3.864e-6,0.03,16.129,204.317,88.064,0.034,2.002,5.978,857.468,334.921,0.05,0.068
6.914,1399.719,232.814,-20.382,232.887,20.386,29.81,0.003,29.81,0.005,5.812,0.412,28.61,-80.6,9.788,0.011,0,-8.055e-4,5.375e-5,2.913e4,4891.737,27.361,0.106,253.043,208.028,2.791,0.696,5.142e7,0,308.732,0.521,0.521,0.308,0.03,0.183,0.001,0.004,-2.939e-4,0,0,0,0,-4.242e-6,0.03,16.129,204.317,88.079,0.022,2.045,5.902,856.227,334.875,0.05,0.068
6.964,1411.334,231.798,-20.262,231.871,20.268,30.1,0.003,30.1,0.005,5.789,0.485,28.61,-80.6,9.788,0.043,0,-5.419e-4,2.017e-5,2.913e4,4891.737,27.361,0.106,252.953,208.028,2.785,0.693,5.114e7,0,305.32,0.52,0.52,0.308,0.03,0.182,0.005,0.015,-2.711e-4,0,0,0,0,-1.936e-6,0.03,16.129,204.317,88.091,0.006,2.113,5.826,854.991,334.83,0.05,0.068
7.014,1422.899,230.788,-20.145,230.86,20.152,30.389,0.003,30.389,0.006,5.763,0.534,28.61,-80.6,9.788,0.066,0,-3.084e-6,3.583e-5,2.913e4,4891.737,27.361,0.106,252.846,208.028,2.779,0.69,5.087e7,0,301.956,0.52,0.52,0.308,0.03,0.182,0.008,0.022,-7.685e-5,0,0,0,0,0,0.03,16.129,204.317,88.096,-0.011,2.174,5.751,853.761,334.784,0.05,0.069
7.064,1434.413,229.784,-20.03,229.855,20.038,30.676,0.003,30.676,0.006,5.736,0.539,28.61,-80.6,9.788,0.07,0,6.254e-4,3.819e-5,2.913e4,4891.737,27.361,0.106,252.822,208.028,2.777,0.687,5.06e7,0,298.632,0.519,0.519,0.309,0.029,0.181,0.009,0.024,-3.213e-4,0,0,0,0,2.625e-6,0.029,16.129,204.317,88.091,-0.026,2.204,5.676,852.537,334.739,0.05,0.069
7.114,1445.878,228.785,-19.919,228.856,19.925,30.962,0.003,30.962,0.006,5.71,0.504,28.61,-80.6,9.788,0.056,0,0.001,5.517e-5,2.913e4,4891.737,27.361,0.106,252.883,208.028,2.781,0.684,5.034e7,0,295.35,0.519,0.519,0.309,0.029,0.181,0.007,0.019,-7.232e-6,0,0,0,0,1.004e-5,0.029,16.129,204.317,88.074,-0.039,2.207,5.602,851.317,334.694,0.05,0.069
7.164,1457.292,227.792,-19.81,227.863,19.814,31.247,0.003,31.247,0.006,5.687,0.429,28.61,-80.6,9.788,0.025,0,0.002,1.236e-4,2.913e4,4891.737,27.361,0.106,253.094,208.028,2.794,0.681,5.007e7,0,292.107,0.518,0.518,0.309,0.029,0.18,0.003,0.008,-2.72e-4,0,0,0,0,1.734e-5,0.029,16.129,204.317,88.048,-0.045,2.174,5.528,850.103,334.649,0.05,0.07
7.214,1468.657,226.804,-19.703,226.875,19.706,31.531,0.003,31.531,0.006,5.668,0.331,28.61,-80.6,9.788,0.018,0,-0.002,1.787e-4,2.913e4,4891.737,27.361,0.106,252.715,208.028,2.771,0.678,4.981e7,0,288.906,0.517,0.517,0.309,0.029,0.18,0.002,0.006,-2.25e-4,0,0,0,0,-1.716e-5,0.029,16.129,204.317,88.019,-0.041,2.106,5.454,848.894,334.604,0.05,0.07
7.264,1479.972,225.822,-19.597,225.892,19.599,31.814,0.003,31.814,0.006,5.653,0.273,28.61,-80.6,9.788,0.043,0,-0.001,6.784e-5,2.913e4,4891.737,27.361,0.106,252.745,208.028,2.772,0.675,4.954e7,0,285.756,0.517,0.517,0.309,0.028,0.179,0.005,0.015,2.901e-5,0,0,0,0,-1.301e-5,0.029,16.129,204.317,87.992,-0.027,2.096,5.38,847.69,334.559,0.05,0.071
7.314,1491.239,224.844,-19.492,224.915,19.493,32.096,0.003,32.096,0.006,5.641,0.229,28.61,-80.6,9.788,0.062,0,-8.333e-4,5.006e-5,2.913e4,4891.737,27.361,0.106,252.686,208.028,2.769,0.673,4.928e7,0,282.647,0.516,0.516,0.309,0.028,0.179,0.008,0.021,3.419e-4,0,0,0,0,-4.867e-6,0.029,16.129,204.317,87.972,-0.007,2.076,5.307,846.492,334.515,0.05,0.071
7.364,1502.457,223.872,-19.386,223.943,19.387,32.378,0.004,32.378,0.006,5.628,0.256,28.61,-80.6,9.788,0.05,0,-4.04e-4,3.999e-5,2.913e4,4891.737,27.361,0.106,252.744,208.028,2.772,0.67,4.902e7,0,279.589,0.516,0.516,0.309,0.028,0.178,0.006,0.017,-1.418e-4,0,0,0,0,-1.154e-6,0.029,16.129,204.317,87.961,0.014,2.147,5.234,845.311,334.471,0.05,0.072
7.414,1513.626,222.906,-19.282,222.977,19.284,32.659,0.004,32.659,0.006,5.616,0.245,28.61,-80.6,9.788,0.054,0,4.309e-5,2.931e-5,2.913e4,4891.737,27.361,0.106,252.735,208.028,2.772,0.667,4.877e7,0,276.577,0.515,0.515,0.31,0.028,0.178,0.007,0.019,3.971e-4,0,0,0,0,1.324e-8,0.029,16.129,204.317,87.958,0.032,2.122,5.161,844.181,334.427,0.05,0.072
7.464,1524.748,221.944,-19.181,222.015,19.182,32.94,0.004,32.94,0.006,5.604,0.221,28.61,-80.6,9.788,0.063,0,5.632e-4,2.233e-5,2.913e4,4891.737,27.361,0.106,252.683,208.028,2.769,0.664,4.852e7,0,273.601,0.514,0.514,0.31,0.027,0.177,0.008,0.021,-2.116e-4,0,0,0,0,2.282e-6,0.028,16.129,204.317,87.963,0.046,2.043,5.089,843.055,334.383,0.05,0.073
7.514,1535.821,220.988,-19.079,221.058,19.081,33.22,0.004,33.22,0.006,5.593,0.246,28.61,-80.6,9.787,0.05,0,0.001,3.472e-5,2.913e4,4891.737,27.361,0.106,252.739,208.028,2.772,0.661,4.827e7,0,270.665,0.514,0.514,0.31,0.027,0.177,0.006,0.017,3.248e-4,0,0,0,0,8.597e-6,0.028,16.129,204.317,87.978,0.051,2.015,5.017,841.934,334.339,0.05,0.074
7.564,1546.846,220.036,-18.977,220.107,18.98,33.499,0.004,33.499,0.006,5.579,0.309,28.61,-80.6,9.787,0.019,0,0.001,8.717e-5,2.913e4,4891.737,27.361,0.106,252.954,208.028,2.785,0.659,4.802e7,0,267.771,0.513,0.513,0.31,0.027,0.176,0.002,0.006,-2.61e-4,0,0,0,0,1.263e-5,0.028,16.129,204.317,88,0.049,2.034,4.945,840.818,334.296,0.05,0.074
7.614,1557.825,219.09,-18.878,219.161,18.881,33.778,0.004,33.778,0.007,5.563,0.34,28.61,-80.6,9.787,0.001,5.248e-9,6.662e-4,0.001,2.913e4,4891.737,27.361,0.106,253.769,208.028,2.836,0.656,4.777e7,0,264.91,0.513,0.513,0.31,0.027,0.176,1.283e-4,8.539e-5,3.668e-4,0,0,0,0,3.276e-6,0.028,16.129,204.317,88.025,0.043,1.989,4.874,839.707,334.253,0.05,0.074
7.664,1568.756,218.148,-18.779,218.219,18.783,34.055,0.004,34.055,0.007,5.544,0.406,28.61,-80.6,9.787,0.034,0,-0.001,4.617e-5,2.913e4,4891.737,27.361,0.106,252.652,208.028,2.767,0.653,4.752e7,0,262.092,0.512,0.512,0.31,0.027,0.175,0.004,0.011,4.056e-4,0,0,0,0,-1.182e-5,0.028,16.129,204.317,88.05,0.031,2.013,4.803,838.601,334.21,0.05,0.075
