# Time (s),Altitude (m),Vertical velocity (m/s),Vertical acceleration (m/s²),Total velocity (m/s),Total acceleration (m/s²),Position East of launch (m),Position North of launch (m),Lateral distance (m),Lateral direction (°),Lateral velocity (m/s),Lateral acceleration (m/s²),Latitude (°),Longitude (°),Gravitational acceleration (m/s²),Angle of attack (°),Roll rate (r/s),Pitch rate (r/s),Yaw rate (r/s),Mass (g),Motor mass (g),Longitudinal moment of inertia (kg·m²),Rotational moment of inertia (kg·m²),CP location (cm),CG location (cm),Stability margin calibers (​),Mach number (​),Reynolds number (​),Thrust (N),Drag force (N),Drag coefficient (​),Axial drag coefficient (​),Friction drag coefficient (​),Pressure drag coefficient (​),Base drag coefficient (​),Normal force coefficient (​),Pitch moment coefficient (​),Yaw moment coefficient (​),Side force coefficient (​),Roll moment coefficient (​),Roll forcing coefficient (​),Roll damping coefficient (​),Pitch damping coefficient (​),Coriolis acceleration (m/s²),Reference length (cm),Reference area (cm²),Vertical orientation (zenith) (°),Lateral orientation (azimuth) (°),Wind velocity (m/s),Air temperature (°C),Air pressure (mbar),Speed of sound (m/s),Simulation time step (s),Computation time (s)
0.01,7.571e-5,0.015,1.516,0.015,1.519,5.294e-6,0,5.294e-6,0,0.001,0.106,33,107,9.791,85.095,0,0,0,3.809e4,5837.253,51.391,0.141,NaN,265.127,NaN,0.003,2.118e5,429.891,1.224e-5,0.884,0.001,0.751,0.013,0.12,NaN,NaN,NaN,NaN,NaN,NaN,NaN,NaN,1.859e-6,16.129,204.317,86,0,0.958,29.007,852.445,348.877,0.01,0.002
0.02,0.001,0.256,24.039,0.256,24.098,9.992e-5,0,9.992e-5,0,0.018,1.681,33,107,9.791,71.16,0,0,0,3.808e4,5830.95,51.383,0.141,NaN,265.109,NaN,0.003,2.203e5,1289.653,6.32e-4,0.877,0.063,0.744,0.013,0.12,NaN,NaN,NaN,NaN,NaN,NaN,NaN,NaN,3.136e-5,16.129,204.317,86,0,0.946,29.007,852.445,348.877,0.01,0.002
0.03,0.006,0.721,46.57,0.723,46.684,4.414e-4,0,4.414e-4,0,0.05,3.256,33,107,9.791,49.796,0,0,0,3.808e4,5824.646,51.376,0.141,NaN,265.091,NaN,0.003,2.696e5,2149.415,0.006,0.844,0.43,0.71,0.013,0.12,NaN,NaN,NaN,NaN,NaN,NaN,NaN,NaN,8.851e-5,16.129,204.317,86,0,0.935,29.007,852.445,348.877,0.01,0.003
0.04,0.016,1.301,57.96,1.304,58.101,0.001,0,0.001,0,0.091,4.053,33,107,9.791,33.941,0,0,0,3.806e4,5811.98,51.361,0.141,NaN,265.056,NaN,0.005,3.642e5,2583.314,0.022,0.797,0.796,0.664,0.013,0.12,NaN,NaN,NaN,NaN,NaN,NaN,NaN,NaN,1.596e-4,16.129,204.317,86,0,0.923,29.007,852.445,348.877,0.01,0.003
0.05,0.032,1.882,58.192,1.887,58.335,0.002,0,0.002,0,0.132,4.069,33,107,9.791,24.99,0,0,0,3.805e4,5799.314,51.346,0.141,NaN,265.02,NaN,0.006,4.752e5,2591.349,0.043,0.76,0.927,0.627,0.013,0.12,NaN,NaN,NaN,NaN,NaN,NaN,NaN,NaN,2.31e-4,16.129,204.317,86,0,0.911,29.007,852.445,348.877,0.01,0.004
0.06,0.054,2.467,58.425,2.473,58.568,0.004,0,0.004,0,0.172,4.085,33,107,9.791,19.603,0,0,0,3.804e4,5786.648,51.33,0.141,NaN,264.985,NaN,0.008,5.944e5,2599.384,0.069,0.731,0.943,0.598,0.013,0.12,NaN,NaN,NaN,NaN,NaN,NaN,NaN,NaN,3.027e-4,16.129,204.317,86,0,0.905,29.007,852.444,348.877,0.01,0.005
0.07,0.082,3.053,58.657,3.061,58.801,0.006,0,0.006,0,0.213,4.102,33,107,9.791,16.023,0,0,0,3.802e4,5773.864,51.315,0.141,NaN,264.949,NaN,0.009,7.175e5,2607.393,0.097,0.708,0.919,0.575,0.013,0.12,NaN,NaN,NaN,NaN,NaN,NaN,NaN,NaN,3.747e-4,16.129,204.317,86,0,0.899,29.007,852.444,348.877,0.01,0.005
0.08,0.115,3.642,58.889,3.651,59.033,0.008,0,0.008,0,0.255,4.118,33,107,9.791,13.492,0,0,0,3.801e4,5761.081,51.3,0.141,NaN,264.913,NaN,0.011,8.432e5,2615.377,0.128,0.69,0.874,0.556,0.013,0.12,NaN,NaN,NaN,NaN,NaN,NaN,NaN,NaN,4.47e-4,16.129,204.317,86,0,0.893,29.006,852.443,348.877,0.01,0.006
0.09,0.155,4.233,59.121,4.243,59.265,0.011,0,0.011,0,0.296,4.134,33,107,9.791,11.613,0,0,0,3.8e4,5748.297,51.285,0.141,NaN,264.877,NaN,0.013,9.705e5,2623.361,0.161,0.674,0.828,0.541,0.013,0.12,NaN,NaN,NaN,NaN,NaN,NaN,NaN,NaN,5.195e-4,16.129,204.317,86,0,0.887,29.006,852.442,348.877,0.01,0.007
0.1,0.2,4.826,59.352,4.838,59.497,0.014,0,0.014,0,0.337,4.15,33,107,9.791,10.167,0,0,0,3.799e4,5735.397,51.269,0.141,NaN,264.84,NaN,0.014,1.099e6,2631.319,0.196,0.661,0.789,0.528,0.013,0.12,NaN,NaN,NaN,NaN,NaN,NaN,NaN,NaN,5.924e-4,16.129,204.317,86,0,0.881,29.006,852.442,348.877,0.01,0.007
0.11,0.251,5.422,59.583,5.435,59.729,0.018,0,0.018,0,0.379,4.166,33,107,9.791,9.066,0,0,0,3.797e4,5722.497,51.254,0.141,NaN,264.804,NaN,0.016,1.229e6,2639.25,0.235,0.65,0.757,0.516,0.013,0.12,NaN,NaN,NaN,NaN,NaN,NaN,NaN,NaN,6.655e-4,16.129,204.317,86,0,0.879,29.006,852.441,348.877,0.01,0.008
0.12,0.308,6.02,59.814,6.035,59.96,0.022,0,0.022,0,0.421,4.183,33,107,9.791,8.172,0,0,0,3.796e4,5709.596,51.238,0.141,NaN,264.767,NaN,0.018,1.36e6,2647.181,0.278,0.64,0.73,0.506,0.013,0.12,NaN,NaN,NaN,NaN,NaN,NaN,NaN,NaN,7.389e-4,16.129,204.317,86,0,0.878,29.006,852.439,348.877,0.01,0.008
0.13,0.371,6.62,60.044,6.637,60.191,0.026,0,0.026,0,0.463,4.199,33,107,9.791,7.434,0,0,0,3.795e4,5696.58,51.222,0.141,NaN,264.73,NaN,0.019,1.492e6,2655.084,0.324,0.631,0.708,0.497,0.013,0.12,NaN,NaN,NaN,NaN,NaN,NaN,NaN,NaN,8.126e-4,16.129,204.317,86,0,0.876,29.006,852.438,348.877,0.01,0.009
0.14,0.441,7.223,60.274,7.241,60.421,0.031,0,0.031,0,0.505,4.215,33,107,9.791,6.812,0,0,0,3.793e4,5683.564,51.207,0.141,NaN,264.694,NaN,0.021,1.624e6,2662.96,0.374,0.623,0.689,0.489,0.013,0.12,NaN,NaN,NaN,NaN,NaN,NaN,NaN,NaN,8.865e-4,16.129,204.317,86,0,0.874,29.006,852.437,348.876,0.01,0.01
0.15,0.516,7.828,60.504,7.847,60.652,0.036,0,0.036,0,0.547,4.231,33,107,9.791,6.283,0,0,0,3.792e4,5670.548,51.191,0.141,NaN,264.657,NaN,0.023,1.757e6,2670.836,0.427,0.616,0.673,0.482,0.013,0.12,NaN,NaN,NaN,NaN,NaN,NaN,NaN,NaN,9.608e-4,16.129,204.317,86,0,0.873,29.006,852.435,348.876,0.01,0.011
0.16,0.597,8.435,60.733,8.456,60.882,0.042,0,0.042,0,0.59,4.247,33,107,9.791,5.905,0,0,0,3.791e4,5657.417,51.175,0.141,NaN,264.62,NaN,0.025,1.891e6,2678.683,0.486,0.609,0.66,0.475,0.013,0.12,NaN,NaN,NaN,NaN,NaN,NaN,NaN,NaN,0.001,16.129,204.317,86,0,0.883,29.006,852.434,348.876,0.01,0.011
0.17,0.685,9.045,60.962,9.067,61.111,0.048,0,0.048,0,0.632,4.263,33,107,9.791,5.575,0,0,0,3.79e4,5644.286,51.16,0.141,NaN,264.582,NaN,0.026,2.025e6,2686.501,0.548,0.603,0.649,0.469,0.013,0.12,NaN,NaN,NaN,NaN,NaN,NaN,NaN,NaN,0.001,16.129,204.317,86,0,0.893,29.005,852.432,348.876,0.01,0.012
0.18,0.778,9.657,61.19,9.68,61.34,0.054,0,0.054,0,0.675,4.279,33,107,9.791,5.285,0,0,0,3.788e4,5631.155,51.144,0.141,NaN,264.545,NaN,0.028,2.161e6,2694.319,0.614,0.597,0.639,0.464,0.013,0.12,NaN,NaN,NaN,NaN,NaN,NaN,NaN,NaN,0.001,16.129,204.317,86,0,0.903,29.005,852.43,348.876,0.01,0.013
0.19,0.878,10.271,61.419,10.296,61.569,0.061,0,0.061,0,0.718,4.295,33,107,9.791,5.028,0,0,0,3.787e4,5617.909,51.128,0.141,NaN,264.508,NaN,0.03,2.296e6,2702.107,0.684,0.592,0.63,0.459,0.013,0.12,NaN,NaN,NaN,NaN,NaN,NaN,NaN,NaN,0.001,16.129,204.317,86,0,0.914,29.005,852.429,348.876,0.01,0.014
0.2,0.984,10.887,61.646,10.913,61.796,0.069,0,0.069,0,0.761,4.311,33,107,9.791,4.799,0,0,0,3.786e4,5604.664,51.112,0.141,NaN,264.47,NaN,0.032,2.433e6,2709.866,0.757,0.587,0.622,0.454,0.013,0.12,NaN,NaN,NaN,NaN,NaN,NaN,NaN,NaN,0.001,16.129,204.317,86,0,0.924,29.005,852.426,348.876,0.01,0.015
0.21,1.096,11.506,61.873,11.534,62.025,0.077,0,0.077,0,0.805,4.327,33,107,9.791,4.548,0,0,0,3.784e4,5591.418,51.096,0.141,NaN,264.432,NaN,0.033,2.569e6,2717.624,0.834,0.583,0.614,0.449,0.013,0.12,NaN,NaN,NaN,NaN,NaN,NaN,NaN,NaN,0.001,16.129,204.317,86,0,0.925,29.005,852.424,348.876,0.01,0.02
0.22,1.214,12.126,62.1,12.156,62.252,0.085,0,0.085,0,0.848,4.342,33,107,9.791,4.321,0,0,0,3.783e4,5578.06,51.08,0.141,NaN,264.394,NaN,0.035,2.706e6,2725.352,0.915,0.579,0.607,0.445,0.013,0.12,NaN,NaN,NaN,NaN,NaN,NaN,NaN,NaN,0.001,16.129,204.317,86,0,0.926,29.004,852.422,348.876,0.01,0.021
0.23,1.338,12.75,62.327,12.781,62.479,0.094,0,0.094,0,0.892,4.358,33,107,9.791,4.115,0,0,0,3.782e4,5564.701,51.064,0.141,NaN,264.356,NaN,0.037,2.844e6,2733.048,1,0.575,0.6,0.441,0.013,0.12,NaN,NaN,NaN,NaN,NaN,NaN,NaN,NaN,0.002,16.129,204.317,86,0,0.926,29.004,852.42,348.875,0.01,0.022
0.24,1.469,13.375,62.553,13.408,62.706,0.103,0,0.103,0,0.935,4.374,33,107,9.791,3.928,0,0,0,3.78e4,5551.342,51.047,0.14,NaN,264.318,NaN,0.039,2.982e6,2740.745,1.088,0.571,0.594,0.437,0.013,0.12,NaN,NaN,NaN,NaN,NaN,NaN,NaN,NaN,0.002,16.129,204.317,86,0,0.927,29.004,852.417,348.875,0.01,0.023
0.25,1.606,14.003,62.778,14.037,62.932,0.112,0,0.112,0,0.979,4.39,33,107,9.791,3.756,0,0,0,3.779e4,5537.871,51.031,0.14,NaN,264.28,NaN,0.041,3.121e6,2748.41,1.181,0.568,0.589,0.434,0.013,0.12,NaN,NaN,NaN,NaN,NaN,NaN,NaN,NaN,0.002,16.129,204.317,86,0,0.928,29.004,852.415,348.875,0.01,0.024
0.26,1.749,14.633,63.003,14.668,63.157,0.122,0,0.122,0,1.023,4.406,33,107,9.791,3.595,0,0,0,3.778e4,5524.4,51.015,0.14,NaN,264.241,NaN,0.042,3.26e6,2756.042,1.277,0.564,0.584,0.431,0.013,0.12,NaN,NaN,NaN,NaN,NaN,NaN,NaN,NaN,0.002,16.129,204.317,86,0,0.928,29.004,852.412,348.875,0.01,0.033
0.27,1.898,15.265,63.228,15.302,63.383,0.133,0,0.133,0,1.067,4.421,33,107,9.791,3.447,0,0,0,3.776e4,5510.929,50.999,0.14,NaN,264.203,NaN,0.044,3.399e6,2763.674,1.378,0.561,0.579,0.427,0.013,0.12,NaN,NaN,NaN,NaN,NaN,NaN,NaN,NaN,0.002,16.129,204.317,86,0,0.928,29.003,852.409,348.875,0.01,0.034
0.28,2.054,15.899,63.452,15.938,63.607,0.144,0,0.144,0,1.112,4.437,33,107,9.791,3.31,0,0,0,3.775e4,5497.346,50.982,0.14,NaN,264.164,NaN,0.046,3.539e6,2771.274,1.482,0.558,0.575,0.424,0.013,0.12,NaN,NaN,NaN,NaN,NaN,NaN,NaN,NaN,0.002,16.129,204.317,86,0,0.928,29.003,852.406,348.875,0.01,0.035
0.29,2.216,16.536,63.676,16.576,63.831,0.155,0,0.155,0,1.156,4.453,33,107,9.791,3.182,0,0,0,3.773e4,5483.764,50.966,0.14,NaN,264.125,NaN,0.048,3.68e6,2778.84,1.592,0.556,0.571,0.422,0.013,0.12,NaN,NaN,NaN,NaN,NaN,NaN,NaN,NaN,0.002,16.129,204.317,86,0,0.927,29.003,852.403,348.875,0.01,0.035
0.3,2.385,17.175,63.899,17.217,64.055,0.167,0,0.167,0,1.201,4.468,33,107,9.791,3.064,0,0,0,3.772e4,5470.181,50.949,0.14,NaN,264.086,NaN,0.05,3.821e6,2786.406,1.713,0.555,0.57,0.421,0.013,0.12,NaN,NaN,NaN,NaN,NaN,NaN,NaN,NaN,0.002,16.129,204.317,86,0,0.927,29.002,852.4,348.874,0.01,0.036
0.31,2.56,17.816,64.122,17.859,64.279,0.179,0,0.179,0,1.246,4.484,33,107,9.791,2.963,0,0,0,3.771e4,5456.488,50.932,0.14,NaN,264.047,NaN,0.051,3.963e6,2793.938,1.838,0.555,0.568,0.421,0.014,0.12,NaN,NaN,NaN,NaN,NaN,NaN,NaN,NaN,0.002,16.129,204.317,86,0,0.93,29.002,852.396,348.874,0.01,0.037
0.32,2.741,18.459,64.344,18.504,64.501,0.192,0,0.192,0,1.291,4.499,33,107,9.791,2.869,0,0,0,3.769e4,5442.795,50.916,0.14,NaN,264.008,NaN,0.053,4.105e6,2801.436,1.969,0.555,0.567,0.421,0.014,0.12,NaN,NaN,NaN,NaN,NaN,NaN,NaN,NaN,0.002,16.129,204.317,86,0,0.933,29.002,852.393,348.874,0.01,0.038
0.33,2.929,19.105,64.566,19.151,64.723,0.205,0,0.205,0,1.336,4.515,33,107,9.791,2.781,0,0,0,3.768e4,5429.102,50.899,0.14,NaN,263.969,NaN,0.055,4.248e6,2808.934,2.105,0.555,0.566,0.421,0.014,0.12,NaN,NaN,NaN,NaN,NaN,NaN,NaN,NaN,0.002,16.129,204.317,86,0,0.936,29.001,852.389,348.874,0.01,0.038
0.34,3.123,19.752,64.787,19.801,64.945,0.218,0,0.218,0,1.381,4.53,33,107,9.791,2.699,0,0,0,3.767e4,5415.3,50.882,0.14,NaN,263.929,NaN,0.057,4.392e6,2816.396,2.246,0.554,0.566,0.42,0.014,0.12,NaN,NaN,NaN,NaN,NaN,NaN,NaN,NaN,0.002,16.129,204.317,86,0,0.939,29.001,852.385,348.874,0.01,0.039
0.35,3.324,20.402,65.007,20.452,65.166,0.232,0,0.232,0,1.427,4.546,33,107,9.791,2.621,0,0,0,3.765e4,5401.498,50.866,0.14,NaN,263.889,NaN,0.059,4.535e6,2823.823,2.392,0.554,0.565,0.42,0.014,0.12,NaN,NaN,NaN,NaN,NaN,NaN,NaN,NaN,0.003,16.129,204.317,86,0,0.942,29.001,852.382,348.873,0.01,0.039
0.36,3.531,21.054,65.227,21.106,65.386,0.247,0,0.247,0,1.472,4.561,33,107,9.791,2.509,0,0,0,3.764e4,5387.695,50.849,0.14,NaN,263.85,NaN,0.061,4.679e6,2831.25,2.541,0.554,0.564,0.42,0.014,0.12,NaN,NaN,NaN,NaN,NaN,NaN,NaN,NaN,0.003,16.129,204.317,86,0,0.93,29,852.378,348.873,0.01,0.04
0.37,3.745,21.709,65.447,21.762,65.607,0.262,0,0.262,0,1.518,4.576,33,107,9.791,2.404,0,0,0,3.762e4,5373.784,50.832,0.14,NaN,263.81,NaN,0.063,4.824e6,2838.641,2.696,0.554,0.563,0.42,0.014,0.121,NaN,NaN,NaN,NaN,NaN,NaN,NaN,NaN,0.003,16.129,204.317,86,0,0.919,29,852.373,348.873,0.01,0.04
0.38,3.965,22.365,65.665,22.42,65.826,0.277,0,0.277,0,1.564,4.592,33,107,9.791,2.305,0,0,0,3.761e4,5359.874,50.815,0.14,NaN,263.77,NaN,0.064,4.969e6,2845.995,2.856,0.553,0.562,0.419,0.014,0.121,NaN,NaN,NaN,NaN,NaN,NaN,NaN,NaN,0.003,16.129,204.317,86,0,0.907,29,852.369,348.873,0.01,0.041
0.39,4.192,23.024,65.884,23.08,66.045,0.293,0,0.293,0,1.61,4.607,33,107,9.791,2.211,0,0,0,3.76e4,5345.963,50.798,0.14,NaN,263.73,NaN,0.066,5.114e6,2853.349,3.021,0.553,0.561,0.419,0.014,0.121,NaN,NaN,NaN,NaN,NaN,NaN,NaN,NaN,0.003,16.129,204.317,86,0,0.896,28.999,852.365,348.872,0.01,0.042
0.4,4.426,23.685,66.102,23.743,66.263,0.309,0,0.309,0,1.656,4.622,33,107,9.791,2.122,0,0,0,3.758e4,5331.945,50.781,0.14,NaN,263.689,NaN,0.068,5.26e6,2860.666,3.191,0.553,0.56,0.419,0.014,0.121,NaN,NaN,NaN,NaN,NaN,NaN,NaN,NaN,0.003,16.129,204.317,86,0,0.884,28.999,852.36,348.872,0.01,0.042
0.41,4.666,24.348,66.319,24.408,66.481,0.326,0,0.326,0,1.703,4.637,33,107,9.791,2.066,0,0,0,3.757e4,5317.927,50.764,0.14,NaN,263.649,NaN,0.07,5.406e6,2867.945,3.369,0.553,0.56,0.419,0.014,0.121,NaN,NaN,NaN,NaN,NaN,NaN,NaN,NaN,0.003,16.129,204.317,86,0,0.885,28.998,852.356,348.872,0.01,0.043
0.42,4.913,25.013,66.536,25.074,66.698,0.344,0,0.344,0,1.749,4.653,33,107,9.791,2.012,0,0,0,3.755e4,5303.909,50.746,0.14,NaN,263.608,NaN,0.072,5.554e6,2875.224,3.551,0.553,0.559,0.418,0.014,0.121,NaN,NaN,NaN,NaN,NaN,NaN,NaN,NaN,0.003,16.129,204.317,86,0,0.885,28.998,852.351,348.872,0.01,0.044
0.43,5.166,25.681,66.752,25.743,66.915,0.361,0,0.361,0,1.796,4.668,33,107,9.791,1.961,0,0,0,3.754e4,5289.784,50.729,0.14,NaN,263.568,NaN,0.074,5.701e6,2882.465,3.739,0.553,0.559,0.418,0.014,0.121,NaN,NaN,NaN,NaN,NaN,NaN,NaN,NaN,0.003,16.129,204.317,86,0,0.886,28.997,852.346,348.871,0.01,0.044
0.44,5.427,26.35,66.967,26.415,67.13,0.379,0,0.379,0,1.843,4.683,33,107,9.791,1.912,0,0,0,3.753e4,5275.66,50.712,0.14,NaN,263.527,NaN,0.076,5.849e6,2889.667,3.933,0.552,0.558,0.418,0.014,0.121,NaN,NaN,NaN,NaN,NaN,NaN,NaN,NaN,0.003,16.129,204.317,86,0,0.886,28.997,852.341,348.871,0.01,0.045
0.45,5.693,27.022,67.182,27.088,67.346,0.398,0,0.398,0,1.89,4.698,33,107,9.791,1.866,0,0,0,3.751e4,5261.536,50.694,0.14,NaN,263.486,NaN,0.078,5.998e6,2896.869,4.132,0.552,0.558,0.418,0.014,0.121,NaN,NaN,NaN,NaN,NaN,NaN,NaN,NaN,0.003,16.129,204.317,86,0,0.887,28.996,852.336,348.871,0.01,0.046
0.46,5.967,27.696,67.396,27.763,67.561,0.417,0,0.417,0,1.937,4.713,33,107,9.791,1.826,0,0,0,3.75e4,5247.307,50.677,0.14,NaN,263.445,NaN,0.08,6.147e6,2904.032,4.338,0.552,0.557,0.418,0.014,0.121,NaN,NaN,NaN,NaN,NaN,NaN,NaN,NaN,0.003,16.129,204.317,86,0,0.889,28.996,852.331,348.87,0.01,0.046
0.47,6.247,28.372,67.609,28.441,67.774,0.437,0,0.437,0,1.984,4.728,33,107,9.791,1.788,0,0,0,3.748e4,5233.077,50.659,0.14,NaN,263.403,NaN,0.082,6.297e6,2911.154,4.549,0.552,0.557,0.417,0.014,0.121,NaN,NaN,NaN,NaN,NaN,NaN,NaN,NaN,0.003,16.129,204.317,86,0,0.892,28.996,852.325,348.87,0.01,0.047
0.48,6.534,29.05,67.823,29.121,67.988,0.457,0,0.457,0,2.031,4.743,33,107,9.791,1.751,0,0,0,3.747e4,5218.848,50.642,0.14,NaN,263.362,NaN,0.084,6.447e6,2918.277,4.765,0.552,0.557,0.417,0.014,0.121,NaN,NaN,NaN,NaN,NaN,NaN,NaN,NaN,0.004,16.129,204.317,86,0,0.894,28.995,852.32,348.87,0.01,0.048
0.49,6.828,29.73,68.035,29.803,68.201,0.477,0,0.477,0,2.079,4.757,33,107,9.791,1.716,0,0,0,3.746e4,5204.515,50.624,0.14,NaN,263.321,NaN,0.086,6.597e6,2925.359,4.988,0.552,0.557,0.417,0.014,0.121,NaN,NaN,NaN,NaN,NaN,NaN,NaN,NaN,0.004,16.129,204.317,86,0,0.897,28.994,852.314,348.87,0.01,0.049
0.5,7.129,30.412,68.246,30.487,68.413,0.499,0,0.499,0,2.127,4.772,33,107,9.791,1.683,0,0,0,3.744e4,5190.182,50.607,0.14,NaN,263.279,NaN,0.088,6.748e6,2932.401,5.216,0.552,0.556,0.417,0.014,0.121,NaN,NaN,NaN,NaN,NaN,NaN,NaN,NaN,0.004,16.129,204.317,86,0,0.9,28.994,852.308,348.869,0.01,0.049
0.51,7.437,31.097,68.458,31.173,68.625,0.52,0,0.52,0,2.175,4.787,33,107,9.791,1.659,0,0,0,3.743e4,5175.849,50.589,0.14,NaN,263.237,NaN,0.09,6.9e6,2939.442,5.45,0.552,0.556,0.417,0.014,0.121,NaN,NaN,NaN,NaN,NaN,NaN,NaN,NaN,0.004,16.129,204.317,86,0,0.907,28.993,852.302,348.869,0.01,0.05
0.52,7.751,31.783,68.668,31.861,68.836,0.542,0,0.542,0,2.223,4.802,33,107,9.791,1.636,0,0,0,3.741e4,5161.413,50.571,0.14,NaN,263.195,NaN,0.092,7.052e6,2946.442,5.691,0.551,0.556,0.417,0.014,0.121,NaN,NaN,NaN,NaN,NaN,NaN,NaN,NaN,0.004,16.129,204.317,86,0,0.914,28.993,852.296,348.869,0.01,0.05
0.53,8.072,32.472,68.877,32.551,69.045,0.564,0,0.564,0,2.271,4.816,33,107,9.791,1.615,0,0,0,3.74e4,5146.977,50.553,0.14,NaN,263.153,NaN,0.094,7.204e6,2953.4,5.938,0.551,0.556,0.416,0.014,0.121,NaN,NaN,NaN,NaN,NaN,NaN,NaN,NaN,0.004,16.129,204.317,86,0,0.922,28.992,852.29,348.868,0.01,0.051
0.54,8.4,33.163,69.087,33.244,69.255,0.587,0,0.587,0,2.319,4.831,33,107,9.791,1.594,0,0,0,3.738e4,5132.542,50.536,0.14,NaN,263.111,NaN,0.096,7.357e6,2960.358,6.19,0.551,0.555,0.416,0.014,0.121,NaN,NaN,NaN,NaN,NaN,NaN,NaN,NaN,0.004,16.129,204.317,86,0,0.929,28.992,852.284,348.868,0.01,0.051
0.55,8.736,33.856,69.295,33.938,69.464,0.611,0,0.611,0,2.367,4.846,33,107,9.791,1.573,0,0,0,3.737e4,5118.004,50.518,0.14,NaN,263.069,NaN,0.098,7.511e6,2967.273,6.449,0.551,0.555,0.416,0.014,0.121,NaN,NaN,NaN,NaN,NaN,NaN,NaN,NaN,0.004,16.129,204.317,86,0,0.936,28.991,852.278,348.867,0.01,0.052
0.56,9.078,34.551,69.502,34.635,69.672,0.635,0,0.635,0,2.416,4.86,33,107,9.791,1.543,0,0,0,3.735e4,5103.467,50.5,0.14,NaN,263.026,NaN,0.1,7.664e6,2974.146,6.713,0.551,0.555,0.416,0.014,0.121,NaN,NaN,NaN,NaN,NaN,NaN,NaN,NaN,0.004,16.129,204.317,86,0,0.937,28.99,852.271,348.867,0.01,0.053
0.57,9.427,35.248,69.709,35.334,69.88,0.659,0,0.659,0,2.465,4.875,33,107,9.791,1.514,0,0,0,3.734e4,5088.93,50.482,0.14,NaN,262.984,NaN,0.102,7.819e6,2981.018,6.983,0.551,0.555,0.416,0.014,0.121,NaN,NaN,NaN,NaN,NaN,NaN,NaN,NaN,0.004,16.129,204.317,86,0,0.938,28.99,852.264,348.867,0.01,0.054
0.58,9.783,35.947,69.916,36.034,70.086,0.684,0,0.684,0,2.514,4.889,33,107,9.791,1.486,0,0,0,3.733e4,5074.293,50.463,0.14,NaN,262.941,NaN,0.104,7.973e6,2987.847,7.259,0.551,0.555,0.416,0.014,0.121,NaN,NaN,NaN,NaN,NaN,NaN,NaN,NaN,0.004,16.129,204.317,86,0,0.939,28.989,852.257,348.866,0.01,0.054
0.59,10.146,36.648,70.121,36.737,70.292,0.709,0,0.709,0,2.563,4.903,33,107,9.791,1.459,0,0,0,3.731e4,5059.656,50.445,0.14,NaN,262.898,NaN,0.106,8.128e6,2994.632,7.542,0.551,0.554,0.416,0.014,0.121,NaN,NaN,NaN,NaN,NaN,NaN,NaN,NaN,0.004,16.129,204.317,86,0,0.94,28.989,852.25,348.866,0.01,0.055
0.6,10.516,37.351,70.326,37.442,70.497,0.735,0,0.735,0,2.612,4.918,33,107,9.791,1.433,0,0,0,3.73e4,5045.018,50.427,0.14,NaN,262.856,NaN,0.108,8.284e6,3001.417,7.83,0.551,0.554,0.415,0.014,0.122,NaN,NaN,NaN,NaN,NaN,NaN,NaN,NaN,0.005,16.129,204.317,86,0,0.941,28.988,852.243,348.866,0.01,0.055
0.615,11.084,38.409,70.546,38.503,70.761,0.775,2.358e-8,0.775,1.743e-6,2.695,5.518,33,107,9.791,1.391,0,6.317e-5,4.443e-8,3.727e4,5022.914,50.4,0.14,300.849,262.791,2.36,0.111,8.518e6,3009.83,8.275,0.551,0.554,0.415,0.014,0.122,0.238,0.562,1.039e-4,0,0,0,0,2.03e-6,0.005,16.129,204.317,86,-7.473e-7,0.93,28.987,852.232,348.865,0.015,0.056
0.638,11.966,40.004,70.935,40.103,71.151,0.837,1.495e-7,0.837,1.023e-5,2.819,5.543,33,107,9.791,1.331,0,1.615e-4,-4.246e-8,3.724e4,4989.685,50.358,0.14,301.133,262.693,2.383,0.115,8.871e6,3022.372,8.968,0.551,0.553,0.415,0.014,0.122,0.227,0.541,-1.692e-4,0,0,0,0,1.223e-5,0.005,16.129,204.317,85.999,-1.807e-7,0.915,28.985,852.215,348.864,0.023,0.056
0.671,13.357,42.415,71.513,42.522,71.731,0.935,5.516e-7,0.935,3.378e-5,3.008,5.581,33,107,9.791,1.265,0,3.175e-4,-6.018e-8,3.719e4,4939.513,50.296,0.14,301.453,262.546,2.412,0.122,9.404e6,3040.972,10.072,0.55,0.553,0.414,0.014,0.122,0.215,0.518,-2.394e-4,0,0,0,0,4.206e-5,0.005,16.129,204.317,85.996,2.963e-6,0.904,28.983,852.189,348.862,0.034,0.057
0.721,15.568,46.029,72.362,46.147,72.581,1.093,1.649e-6,1.093,8.647e-5,3.289,5.64,33,107,9.791,1.188,0,5.724e-4,1.519e-7,3.712e4,4864.557,50.202,0.14,301.827,262.325,2.449,0.132,1.02e7,3068.208,11.849,0.55,0.553,0.414,0.014,0.122,0.201,0.491,1.575e-4,0,0,0,0,1.161e-4,0.006,16.129,204.317,85.988,-3.057e-6,0.899,28.979,852.146,348.86,0.05,0.057
0.771,17.961,49.693,73.333,49.822,73.556,1.264,3.391e-6,1.264,1.536e-4,3.575,5.712,33,107,9.791,1.143,0,8.563e-4,1.971e-7,3.704e4,4788.772,50.107,0.14,302.049,262.1,2.477,0.143,1.102e7,3100.01,13.801,0.55,0.552,0.413,0.014,0.123,0.193,0.477,-1.446e-4,0,0,0,0,2.229e-4,0.006,16.129,204.317,85.975,-2.627e-5,0.92,28.975,852.1,348.857,0.05,0.058
0.821,20.538,53.405,74.283,53.544,74.508,1.45,5.821e-6,1.45,2.299e-4,3.863,5.79,33,107,9.791,1.112,0,0.001,3.777e-8,3.696e4,4712.25,50.011,0.14,302.207,261.873,2.501,0.154,1.184e7,3130.989,15.935,0.55,0.552,0.413,0.014,0.123,0.187,0.468,-3.879e-4,0,0,0,0,3.7e-4,0.007,16.129,204.317,85.957,-5.753e-5,0.955,28.97,852.051,348.855,0.05,0.058
0.871,23.302,57.162,75.209,57.313,75.439,1.651,8.981e-6,1.651,3.117e-4,4.157,5.883,33,107,9.791,1.029,0,0.002,-2.5e-8,3.689e4,4635.021,49.913,0.14,302.621,261.642,2.541,0.165,1.267e7,3161.107,18.244,0.55,0.552,0.412,0.015,0.124,0.172,0.437,-3.151e-5,0,0,0,0,5.509e-4,0.007,16.129,204.317,85.932,-7.588e-5,0.942,28.965,851.998,348.852,0.05,0.058
0.921,26.255,60.965,76.111,61.127,76.346,1.866,1.292e-5,1.866,3.966e-4,4.455,5.989,33,107,9.791,0.935,0,0.002,5.073e-7,3.681e4,4557.031,49.814,0.14,303.093,261.408,2.584,0.175,1.351e7,3190.344,20.74,0.55,0.552,0.411,0.015,0.124,0.156,0.401,-1.044e-4,0,0,0,0,7.48e-4,0.007,16.129,204.317,85.901,-6.711e-5,0.915,28.96,851.941,348.849,0.05,0.059
0.971,29.4,64.812,76.988,64.986,77.229,2.097,1.769e-5,2.097,4.834e-4,4.758,6.102,33,107,9.791,0.871,0,0.002,2.874e-7,3.673e4,4478.367,49.713,0.139,303.425,261.171,2.62,0.187,1.436e7,3218.681,23.437,0.55,0.552,0.411,0.015,0.125,0.144,0.377,-2.332e-4,0,0,0,0,9.674e-4,0.008,16.129,204.317,85.863,-7.172e-5,0.921,28.954,851.88,348.845,0.05,0.059
1.021,32.738,68.701,77.838,68.888,78.087,2.342,2.334e-5,2.342,5.709e-4,5.068,6.229,33,107,9.791,0.794,0,0.003,1.179e-7,3.665e4,4399.059,49.612,0.139,303.822,260.931,2.659,0.198,1.522e7,3246.079,26.332,0.551,0.552,0.41,0.015,0.125,0.131,0.347,4.396e-4,0,0,0,0,0.001,0.008,16.129,204.317,85.817,-9.204e-5,0.914,28.948,851.816,348.841,0.05,0.06
1.071,36.271,72.631,78.66,72.831,78.918,2.603,2.99e-5,2.603,6.581e-4,5.384,6.371,33,107,9.791,0.717,0,0.003,8.615e-7,3.657e4,4319.062,49.509,0.139,304.226,260.688,2.699,0.209,1.609e7,3272.523,29.434,0.551,0.552,0.41,0.015,0.126,0.118,0.316,4.809e-4,0,0,0,0,0.001,0.009,16.129,204.317,85.764,-1.144e-4,0.91,28.942,851.748,348.838,0.05,0.061
1.121,40.002,76.602,79.454,76.814,79.721,2.881,3.744e-5,2.881,7.446e-4,5.708,6.519,33,107,9.791,0.665,0,0.004,1.302e-6,3.649e4,4238.46,49.405,0.139,304.503,260.442,2.732,0.22,1.697e7,3297.994,32.754,0.551,0.552,0.409,0.016,0.126,0.109,0.296,-1.764e-4,0,0,0,0,0.002,0.009,16.129,204.317,85.703,-1.552e-4,0.944,28.935,851.677,348.834,0.05,0.062
1.171,43.932,80.61,80.218,80.836,80.497,3.174,4.598e-5,3.174,8.298e-4,6.039,6.688,33,107,9.791,0.594,0,0.004,1.004e-6,3.641e4,4157.283,49.3,0.139,304.884,260.193,2.771,0.232,1.786e7,3322.456,36.287,0.552,0.552,0.409,0.016,0.127,0.097,0.266,3.866e-4,0,0,0,0,0.002,0.01,16.129,204.317,85.633,-2.101e-4,0.958,28.928,851.601,348.829,0.05,0.063
1.221,48.064,84.655,80.951,84.895,81.243,3.485,5.554e-5,3.485,9.132e-4,6.379,6.878,33,107,9.791,0.507,0,0.005,1.77e-6,3.633e4,4075.495,49.193,0.139,305.353,259.941,2.816,0.244,1.875e7,3345.895,40.041,0.552,0.553,0.408,0.016,0.128,0.082,0.229,4.457e-4,0,0,0,0,0.002,0.01,16.129,204.317,85.556,-2.564e-4,0.954,28.921,851.522,348.825,0.05,0.063
1.271,52.398,88.736,81.652,88.991,81.959,3.812,6.617e-5,3.812,9.945e-4,6.729,7.08,33,107,9.791,0.432,0,0.005,1.103e-6,3.624e4,3993.175,49.085,0.139,305.766,259.687,2.857,0.255,1.966e7,3368.297,44.026,0.553,0.553,0.408,0.016,0.128,0.07,0.197,-2.103e-4,0,0,0,0,0.002,0.011,16.129,204.317,85.47,-1.886e-4,0.973,28.913,851.438,348.82,0.05,0.064
1.321,56.938,92.85,82.32,93.12,82.643,4.158,7.794e-5,4.158,0.001,7.09,7.302,33,107,9.791,0.346,0,0.005,1.664e-6,3.616e4,3910.354,48.976,0.139,306.239,259.429,2.902,0.267,2.057e7,3389.625,48.244,0.554,0.554,0.407,0.017,0.129,0.055,0.158,-5.342e-5,0,0,0,0,0.002,0.011,16.129,204.317,85.378,-7.877e-5,0.981,28.905,851.351,348.815,0.05,0.065
1.371,61.684,96.996,82.954,97.282,83.296,4.522,9.094e-5,4.522,0.001,7.462,7.541,33,107,9.791,0.253,0,0.006,3.323e-6,3.608e4,3827.006,48.866,0.139,306.757,259.169,2.95,0.279,2.148e7,3409.871,52.7,0.554,0.554,0.407,0.017,0.13,0.04,0.117,1.539e-5,0,0,0,0,0.003,0.012,16.129,204.317,85.278,4.106e-5,0.98,28.896,851.26,348.81,0.05,0.065
1.421,66.638,101.172,83.553,101.475,83.916,4.904,1.053e-4,4.904,0.001,7.847,7.798,33,107,9.791,0.154,0,0.006,5.988e-6,3.599e4,3743.202,48.755,0.139,307.318,258.906,3.002,0.291,2.241e7,3429.022,57.4,0.555,0.555,0.406,0.017,0.131,0.024,0.071,-1.113e-4,0,0,0,0,0.003,0.012,16.129,204.317,85.174,1.178e-4,0.968,28.888,851.165,348.805,0.05,0.066
1.471,71.802,105.376,84.116,105.698,84.502,5.307,1.21e-4,5.307,0.001,8.244,8.069,33,107,9.791,0.05,0,0.006,1.943e-5,3.591e4,3658.975,48.643,0.139,307.918,258.641,3.055,0.303,2.334e7,3447.044,62.349,0.556,0.556,0.406,0.018,0.132,0.008,0.022,-9.894e-5,0,0,0,0,0.002,0.013,16.129,204.317,85.066,1.607e-4,0.943,28.878,851.066,348.799,0.05,0.066
1.521,77.177,109.607,84.642,109.948,85.053,5.729,1.382e-4,5.729,0.001,8.656,8.347,33,107,9.791,0.052,0,-0.006,1.681e-5,3.583e4,3574.307,48.53,0.139,307.913,258.373,3.071,0.315,2.427e7,3463.93,67.555,0.557,0.557,0.405,0.018,0.133,0.008,0.027,1.883e-4,0,0,0,0,-0.002,0.013,16.129,204.317,84.957,1.461e-4,0.914,28.869,850.962,348.793,0.05,0.066
1.571,82.763,113.862,85.133,114.223,85.568,6.172,1.57e-4,6.172,0.001,9.081,8.619,33,107,9.791,0.134,0,-0.006,8.3e-6,3.574e4,3489.266,48.415,0.138,307.491,258.103,3.062,0.328,2.521e7,3479.672,73.024,0.557,0.557,0.405,0.019,0.134,0.021,0.067,2.931e-4,0,0,0,0,-0.002,0.014,16.129,204.317,84.85,2.799e-5,0.912,28.859,850.855,348.787,0.05,0.067
1.621,88.563,118.14,85.587,118.523,86.046,6.637,1.773e-4,6.637,0.002,9.519,8.876,33,107,9.791,0.192,0,-0.006,6.696e-6,3.565e4,3403.883,48.3,0.138,307.197,257.83,3.061,0.34,2.616e7,3494.239,78.759,0.558,0.558,0.404,0.019,0.135,0.031,0.095,-1.981e-4,0,0,0,0,-0.002,0.015,16.129,204.317,84.747,-2.491e-5,0.943,28.848,850.743,348.781,0.05,0.068
1.671,94.578,122.439,86.003,122.845,86.487,7.125,1.992e-4,7.125,0.002,9.971,9.136,33,107,9.791,0.264,0,-0.005,2.952e-6,3.557e4,3318.15,48.184,0.138,306.836,257.554,3.055,0.352,2.711e7,3507.627,84.758,0.559,0.56,0.404,0.019,0.136,0.042,0.13,4.79e-5,0,0,0,0,-0.001,0.015,16.129,204.317,84.65,1.524e-4,0.927,28.838,850.628,348.775,0.05,0.069
1.721,100.808,126.757,86.383,127.186,86.89,7.635,2.228e-4,7.635,0.002,10.434,9.377,33,107,9.791,0.324,0,-0.005,4.556e-6,3.548e4,3232.128,48.067,0.138,306.537,257.277,3.054,0.365,2.807e7,3519.831,91.02,0.561,0.561,0.403,0.02,0.137,0.052,0.16,1.664e-4,0,0,0,0,-9.577e-4,0.016,16.129,204.317,84.563,4.773e-4,0.906,28.817,850.406,348.762,0.05,0.069
1.771,107.254,131.093,86.726,131.546,87.254,8.168,2.483e-4,8.168,0.002,10.909,9.585,33,107,9.791,0.363,0,-0.004,1.752e-6,3.54e4,3145.847,47.949,0.138,306.361,256.997,3.061,0.377,2.902e7,3530.821,97.522,0.562,0.562,0.403,0.02,0.139,0.058,0.179,3.607e-5,0,0,0,0,-6.201e-4,0.016,16.129,204.317,84.488,8.491e-4,0.904,28.759,849.798,348.727,0.05,0.07
1.821,113.917,135.444,87.033,135.922,87.579,8.726,2.761e-4,8.726,0.002,11.394,9.76,33,107,9.791,0.39,0,-0.003,4.736e-6,3.531e4,3059.312,47.829,0.138,306.245,256.715,3.071,0.39,2.997e7,3540.599,104.29,0.563,0.563,0.402,0.021,0.14,0.063,0.193,-1.069e-4,0,0,0,0,-3.375e-4,0.017,16.129,204.317,84.428,0.001,0.889,28.699,849.17,348.691,0.05,0.07
1.871,120.799,139.808,87.305,140.313,87.863,9.308,3.064e-4,9.308,0.002,11.886,9.887,33,107,9.791,0.396,0,-0.002,1.618e-6,3.522e4,2972.573,47.71,0.138,306.244,256.431,3.088,0.403,3.093e7,3549.161,111.325,0.564,0.564,0.402,0.021,0.141,0.064,0.197,-3.485e-4,0,0,0,0,-1.321e-4,0.017,16.129,204.317,84.386,0.002,0.883,28.637,848.522,348.653,0.05,0.071
1.921,127.898,144.185,87.542,144.715,88.105,9.914,3.397e-4,9.914,0.002,12.382,9.949,33,107,9.791,0.37,0,-7.975e-4,1.032e-6,3.514e4,2885.662,47.589,0.138,306.409,256.145,3.116,0.415,3.188e7,3556.482,118.63,0.566,0.566,0.401,0.022,0.142,0.06,0.186,2.162e-4,0,0,0,0,-2.296e-5,0.018,16.129,204.317,84.362,0.002,0.911,28.573,847.853,348.614,0.05,0.072
1.971,135.217,148.571,87.742,149.128,88.305,10.546,3.764e-4,10.546,0.002,12.881,9.958,33,107,9.791,0.33,0,2.277e-4,-5.907e-7,3.505e4,2798.592,47.467,0.138,306.655,255.857,3.149,0.428,3.284e7,3562.567,126.205,0.567,0.567,0.401,0.023,0.144,0.053,0.168,3.235e-4,0,0,0,0,1.762e-6,0.018,16.129,204.317,84.357,0.003,0.936,28.508,847.163,348.575,0.05,0.072
2.021,142.756,152.966,87.905,153.549,88.463,11.203,4.166e-4,11.203,0.002,13.378,9.926,33,107,9.791,0.288,0,0.001,2.222e-6,3.496e4,2711.408,47.345,0.138,306.914,255.568,3.184,0.441,3.38e7,3567.416,134.05,0.568,0.569,0.4,0.023,0.145,0.046,0.148,-3.06e-4,0,0,0,0,4.601e-5,0.019,16.129,204.317,84.37,0.003,0.925,28.44,846.453,348.534,0.05,0.073
2.071,150.514,157.366,88.029,157.977,88.578,11.884,4.608e-4,11.884,0.002,13.873,9.848,33,107,9.791,0.239,0,0.002,3.772e-6,3.488e4,2624.139,47.222,0.138,307.212,255.276,3.22,0.454,3.476e7,3571.006,142.167,0.57,0.57,0.399,0.024,0.147,0.038,0.123,-4.666e-4,0,0,0,0,1.327e-4,0.019,16.129,204.317,84.4,0.003,0.894,28.37,845.722,348.491,0.05,0.074
2.121,158.492,161.772,88.115,162.408,88.649,12.59,5.092e-4,12.59,0.002,14.363,9.72,33,107,9.791,0.179,0,0.003,4.18e-6,3.479e4,2536.809,47.098,0.138,307.578,254.983,3.261,0.466,3.572e7,3573.346,150.559,0.572,0.572,0.399,0.025,0.148,0.028,0.093,-3.345e-4,0,0,0,0,2.33e-4,0.02,16.129,204.317,84.445,0.004,0.863,28.299,844.97,348.448,0.05,0.074
2.171,166.691,166.179,88.162,166.841,88.676,13.32,5.622e-4,13.32,0.002,14.844,9.536,33,107,9.791,0.099,0,0.003,6.086e-6,3.47e4,2449.454,46.974,0.137,308.053,254.688,3.309,0.479,3.667e7,3574.44,159.235,0.573,0.573,0.398,0.025,0.15,0.016,0.052,-1.653e-4,0,0,0,0,3.138e-4,0.02,16.129,204.317,84.501,0.005,0.865,28.225,844.197,348.403,0.05,0.075
2.221,175.11,170.588,88.168,171.274,88.658,14.074,6.204e-4,14.074,0.003,15.315,9.304,33,107,9.791,0.003,0,0.004,2.055e-4,3.461e4,2362.101,46.849,0.137,308.714,254.392,3.368,0.492,3.763e7,3574.268,168.202,0.575,0.575,0.397,0.026,0.151,4.31e-4,9.336e-4,-4.031e-5,0,0,0,0,3.34e-4,0.021,16.129,204.317,84.565,0.006,0.909,28.149,843.404,348.357,0.05,0.075
2.271,183.75,174.994,88.131,175.704,88.595,14.851,6.844e-4,14.851,0.003,15.774,9.059,33,107,9.791,0.09,0,-0.003,-9.292e-7,3.453e4,2274.786,46.724,0.137,308.172,254.095,3.353,0.505,3.858e7,3572.841,177.457,0.577,0.577,0.397,0.027,0.153,0.014,0.048,3.774e-4,0,0,0,0,-2.824e-4,0.022,16.129,204.317,84.628,0.007,0.96,28.072,842.59,348.31,0.05,0.076
2.321,192.61,179.397,88.046,180.129,88.488,15.651,7.551e-4,15.651,0.003,16.221,8.828,33,107,9.791,0.169,0,-0.003,2.962e-6,3.444e4,2187.536,46.598,0.137,307.784,253.796,3.347,0.517,3.954e7,3570.169,186.995,0.579,0.579,0.396,0.028,0.155,0.027,0.09,3.591e-4,0,0,0,0,-1.817e-4,0.022,16.129,204.317,84.685,0.008,1.004,27.992,841.755,348.262,0.05,0.076
2.371,201.69,183.793,87.911,184.546,88.336,16.473,8.329e-4,16.473,0.003,16.657,8.654,33,107,9.791,0.216,0,-0.002,-2.226e-6,3.435e4,2100.376,46.471,0.137,307.57,253.496,3.353,0.53,4.048e7,3566.235,196.798,0.581,0.581,0.396,0.029,0.157,0.035,0.116,4.36e-4,0,0,0,0,-7.28e-5,0.023,16.129,204.317,84.727,0.008,1.007,27.911,840.899,348.213,0.05,0.077
2.421,210.989,188.18,87.722,188.954,88.14,17.317,9.182e-4,17.317,0.003,17.087,8.57,33,107,9.791,0.222,0,-6.693e-4,-4.597e-6,3.426e4,2013.352,46.345,0.137,307.581,253.195,3.372,0.543,4.143e7,3561.053,206.851,0.583,0.583,0.395,0.029,0.158,0.036,0.12,3.179e-4,0,0,0,0,-9.488e-6,0.023,16.129,204.317,84.749,0.009,0.943,27.827,840.023,348.162,0.05,0.077
2.471,220.507,192.556,87.482,193.35,87.898,18.182,0.001,18.182,0.003,17.514,8.543,33,107,9.791,0.213,0,4.975e-4,-1.323e-7,3.418e4,1926.482,46.217,0.137,307.678,252.892,3.397,0.556,4.237e7,3554.636,217.174,0.585,0.585,0.394,0.03,0.16,0.034,0.116,4.416e-4,0,0,0,0,5.006e-6,0.024,16.129,204.317,84.75,0.009,0.898,27.742,839.126,348.11,0.05,0.078
2.521,230.244,196.917,87.191,197.732,87.612,19.068,0.001,19.068,0.003,17.941,8.573,33,107,9.791,0.19,0,0.002,-4.399e-6,3.409e4,1839.79,46.09,0.137,307.85,252.589,3.426,0.568,4.33e7,3546.971,227.767,0.587,0.587,0.394,0.031,0.162,0.03,0.104,4.328e-4,0,0,0,0,5.529e-5,0.024,16.129,204.317,84.73,0.009,0.88,27.654,838.209,348.057,0.05,0.078
2.571,240.199,201.261,86.847,202.098,87.279,19.976,0.001,19.976,0.004,18.372,8.674,33,107,9.791,0.148,0,0.003,-4.431e-6,3.4e4,1753.33,45.962,0.137,308.13,252.286,3.462,0.581,4.423e7,3538.076,238.619,0.589,0.589,0.393,0.032,0.164,0.024,0.082,1.766e-5,0,0,0,0,1.356e-4,0.025,16.129,204.317,84.69,0.009,0.856,27.565,837.271,348.003,0.05,0.078
2.621,250.37,205.587,86.452,206.445,86.902,20.906,0.001,20.906,0.004,18.808,8.825,33,107,9.791,0.095,0,0.004,-5.392e-6,3.392e4,1667.112,45.834,0.137,308.471,251.981,3.502,0.594,4.515e7,3527.966,249.737,0.591,0.591,0.392,0.033,0.166,0.015,0.053,1.687e-4,0,0,0,0,2.177e-4,0.025,16.129,204.317,84.634,0.01,0.846,27.473,836.312,347.948,0.05,0.079
2.671,260.757,209.89,86.007,210.771,86.478,21.857,0.001,21.857,0.004,19.254,9.014,33,107,9.791,0.035,0,0.004,-2.274e-5,3.383e4,1581.159,45.705,0.137,308.856,251.676,3.545,0.606,4.607e7,3516.633,261.118,0.594,0.594,0.391,0.035,0.168,0.006,0.02,-4.8e-4,0,0,0,0,2.63e-4,0.026,16.129,204.317,84.566,0.01,0.838,27.38,835.333,347.891,0.05,0.079
2.721,271.358,214.169,85.515,215.073,86.008,22.831,0.002,22.831,0.004,19.708,9.191,33,107,9.791,0.015,0,-0.004,-4.969e-5,3.375e4,1495.531,45.577,0.136,309.053,251.371,3.576,0.619,4.698e7,3504.097,272.77,0.596,0.596,0.391,0.036,0.17,0.002,0.009,3.379e-4,0,0,0,0,-2.575e-4,0.026,16.129,204.317,84.495,0.009,0.876,27.285,834.334,347.834,0.05,0.08
2.771,282.173,218.421,84.975,219.35,85.492,23.828,0.002,23.828,0.004,20.171,9.391,33,107,9.791,0.074,0,-0.004,-1.044e-5,3.366e4,1410.232,45.448,0.136,308.764,251.065,3.577,0.631,4.789e7,3490.377,284.664,0.599,0.599,0.39,0.037,0.172,0.012,0.043,-4.194e-4,0,0,0,0,-2.178e-4,0.027,16.129,204.317,84.425,0.009,0.862,27.188,833.315,347.775,0.05,0.08
2.821,293.2,222.644,84.389,223.599,84.931,24.848,0.002,24.848,0.004,20.645,9.585,33,107,9.79,0.136,0,-0.003,2.647e-6,3.358e4,1325.282,45.319,0.136,308.482,250.759,3.579,0.643,4.878e7,3475.468,296.791,0.601,0.601,0.389,0.038,0.174,0.022,0.078,-1.665e-4,0,0,0,0,-1.186e-4,0.027,16.129,204.317,84.366,0.009,0.781,27.089,832.276,347.715,0.05,0.081
2.871,304.437,226.836,83.767,227.817,84.322,25.893,0.002,25.893,0.005,21.126,9.663,33,107,9.79,0.161,0,-0.002,-2.952e-6,3.349e4,1240.75,45.19,0.136,308.412,250.453,3.593,0.656,4.967e7,3459.394,309.173,0.604,0.604,0.389,0.039,0.176,0.026,0.092,1.548e-4,0,0,0,0,-3.668e-5,0.028,16.129,204.317,84.326,0.008,0.768,26.988,831.217,347.653,0.05,0.081
2.921,315.882,230.995,83.111,232.003,83.667,26.961,0.002,26.961,0.005,21.608,9.627,33,107,9.79,0.156,0,-1.964e-4,7.156e-7,3.341e4,1156.629,45.062,0.136,308.501,250.147,3.618,0.668,5.054e7,3442.177,321.788,0.607,0.607,0.388,0.041,0.178,0.025,0.091,1.16e-4,0,0,0,0,-5.42e-7,0.028,16.129,204.317,84.31,0.008,0.771,26.885,830.139,347.591,0.05,0.082
2.971,327.535,235.12,82.42,236.154,82.964,28.053,0.002,28.053,0.005,22.084,9.482,33,107,9.79,0.127,0,0.001,-7.366e-6,3.332e4,1072.939,44.933,0.136,308.728,249.841,3.651,0.68,5.141e7,3423.814,334.627,0.61,0.61,0.387,0.042,0.18,0.02,0.075,-4.266e-4,0,0,0,0,1.556e-5,0.029,16.129,204.317,84.319,0.007,0.782,26.78,829.04,347.528,0.05,0.082
3.021,339.394,239.208,81.694,240.269,82.214,29.169,0.003,29.169,0.005,22.551,9.237,33,107,9.79,0.077,0,0.002,-4.955e-6,3.324e4,989.754,44.804,0.136,309.072,249.535,3.691,0.692,5.227e7,3404.333,347.69,0.612,0.612,0.386,0.044,0.182,0.012,0.045,-4.519e-5,0,0,0,0,5.658e-5,0.029,16.129,204.317,84.348,0.007,0.8,26.674,827.923,347.463,0.05,0.083
3.071,351.453,243.183,79.425,244.268,79.907,30.308,0.003,30.308,0.005,22.996,8.767,33,107,9.79,0.011,0,0.002,-2.257e-5,3.316e4,910.326,44.681,0.136,309.492,249.241,3.736,0.703,5.31e7,3333.668,360.732,0.615,0.615,0.386,0.045,0.184,0.002,0.007,9.775e-5,0,0,0,0,7.792e-5,0.03,16.129,204.317,84.39,0.008,0.847,26.565,826.787,347.398,0.05,0.084
3.121,363.674,245.625,48.767,246.725,49.082,31.465,0.003,31.465,0.005,23.278,5.554,33,107,9.79,0.043,0,-0.002,-4.465e-6,3.31e4,851.663,44.589,0.136,309.383,249.024,3.742,0.711,5.36e7,2316.045,368.774,0.617,0.617,0.385,0.046,0.186,0.007,0.026,-7.708e-5,0,0,0,0,-6.472e-5,0.03,16.129,204.317,84.434,0.008,0.848,26.456,825.635,347.331,0.05,0.084
3.171,376.01,247.832,44.088,248.947,44.363,32.635,0.003,32.635,0.006,23.53,4.93,33,107,9.79,0.087,0,-0.002,-5.505e-6,3.305e4,798.776,44.506,0.136,309.18,248.827,3.742,0.717,5.404e7,2164.4,376.12,0.619,0.619,0.385,0.047,0.187,0.014,0.052,4.793e-4,0,0,0,0,-3.356e-5,0.031,16.129,204.317,84.47,0.009,0.847,26.345,824.473,347.264,0.05,0.086
3.221,388.456,250.015,43.594,251.142,43.851,33.818,0.003,33.818,0.006,23.77,4.745,33,107,9.79,0.124,0,-5.032e-4,-1.043e-5,3.3e4,746.183,44.424,0.136,309.012,248.63,3.744,0.724,5.448e7,2152.1,383.501,0.621,0.621,0.384,0.048,0.188,0.02,0.075,1.456e-4,0,0,0,0,-3.037e-6,0.031,16.129,204.317,84.49,0.01,0.9,26.233,823.3,347.196,0.05,0.086
3.271,401.011,252.172,43.07,253.312,43.323,35.012,0.004,35.012,0.006,24.004,4.674,33,107,9.79,0.13,0,9.605e-4,-1.586e-5,3.294e4,693.89,44.342,0.136,309.022,248.434,3.756,0.73,5.491e7,2139.276,390.871,0.623,0.623,0.384,0.049,0.189,0.021,0.078,2.281e-5,0,0,0,0,1.088e-5,0.031,16.129,204.317,84.486,0.011,0.921,26.12,822.117,347.128,0.05,0.087
3.321,413.673,254.302,42.516,255.454,42.78,36.218,0.004,36.218,0.006,24.238,4.746,33,107,9.79,0.096,0,0.002,-1.009e-5,3.289e4,641.944,44.26,0.136,309.248,248.239,3.783,0.736,5.533e7,2125.939,398.209,0.624,0.624,0.384,0.05,0.19,0.015,0.058,-1.965e-4,0,0,0,0,5.72e-5,0.031,16.129,204.317,84.456,0.013,0.873,26.007,820.923,347.059,0.05,0.087
3.371,426.44,256.403,41.939,257.568,42.22,37.436,0.004,37.436,0.006,24.477,4.863,33,107,9.79,0.054,0,0.003,-2.487e-5,3.284e4,590.328,44.178,0.136,309.519,248.045,3.811,0.743,5.574e7,2112.102,405.56,0.626,0.626,0.383,0.051,0.192,0.009,0.033,-3.467e-4,0,0,0,0,1.03e-4,0.032,16.129,204.317,84.408,0.014,0.865,25.892,819.72,346.989,0.05,0.088
3.421,439.312,258.474,41.343,259.653,41.644,38.666,0.004,38.666,0.006,24.722,4.999,33,107,9.79,0.009,5.324e-9,0.003,-1.657e-4,3.279e4,539.048,44.096,0.136,309.741,247.851,3.837,0.749,5.615e7,2097.766,412.922,0.628,0.628,0.383,0.052,0.193,0.001,0.006,-1.113e-4,0,0,0,0,1.318e-4,0.032,16.129,204.317,84.349,0.015,0.891,25.776,818.507,346.919,0.05,0.088
3.471,452.287,260.514,40.726,261.709,41.053,39.908,0.005,39.908,0.006,24.976,5.169,33,107,9.79,0.046,0,-0.003,-2.262e-5,3.274e4,488.153,44.015,0.135,309.673,247.658,3.845,0.755,5.655e7,2082.945,420.258,0.63,0.63,0.382,0.053,0.194,0.007,0.028,4.874e-4,0,0,0,0,-1.12e-4,0.032,16.129,204.317,84.289,0.015,0.866,25.66,817.285,346.849,0.05,0.088
3.521,465.363,262.523,40.098,263.733,40.444,41.163,0.005,41.163,0.007,25.236,5.277,33,107,9.79,0.083,0,-0.002,-1.968e-5,3.269e4,437.624,43.934,0.135,309.503,247.465,3.846,0.761,5.694e7,2067.651,427.59,0.632,0.632,0.382,0.055,0.195,0.013,0.051,-2.842e-4,0,0,0,0,-6.047e-5,0.032,16.129,204.317,84.238,0.014,0.867,25.542,816.052,346.778,0.05,0.089
3.571,478.539,264.499,39.446,265.726,39.803,42.432,0.005,42.432,0.007,25.5,5.313,33,107,9.79,0.103,0,-0.001,-1.056e-5,3.264e4,387.743,43.854,0.135,309.431,247.275,3.854,0.767,5.732e7,2051.412,434.893,0.634,0.634,0.382,0.056,0.196,0.017,0.064,4.084e-4,0,0,0,0,-1.705e-5,0.033,16.129,204.317,84.205,0.011,0.862,25.424,814.811,346.706,0.05,0.089
3.621,491.787,265.441,18.794,266.679,19.07,43.711,0.005,43.711,0.007,25.662,3.235,33,107,9.79,0.106,0,1.321e-4,-2.024e-5,3.26e4,353.846,43.8,0.135,309.43,247.145,3.862,0.77,5.748e7,1376.227,438.167,0.635,0.635,0.381,0.056,0.197,0.017,0.066,-3.141e-4,0,0,0,0,1.857e-7,0.033,16.129,204.317,84.195,0.009,0.824,25.305,813.562,346.634,0.05,0.09
3.671,505.073,265.983,10.826,267.229,11.069,44.997,0.006,44.997,0.007,25.781,2.309,33,107,9.79,0.073,0,0.001,-1.425e-5,3.258e4,326.577,43.756,0.135,309.62,247.041,3.88,0.771,5.755e7,1115.862,439.883,0.635,0.635,0.381,0.057,0.197,0.012,0.045,1.448e-4,0,0,0,0,1.786e-5,0.033,16.129,204.317,84.209,0.008,0.852,25.186,812.31,346.561,0.05,0.09
3.721,518.385,266.511,10.564,267.766,10.772,46.289,0.006,46.289,0.007,25.891,2.108,33,107,9.79,0.025,0,0.002,-3.142e-5,3.255e4,299.495,43.712,0.135,309.876,246.937,3.902,0.773,5.762e7,1107.827,441.551,0.636,0.636,0.381,0.057,0.198,0.004,0.016,-1.945e-4,0,0,0,0,3.708e-5,0.033,16.129,204.317,84.239,0.007,0.883,25.066,811.056,346.489,0.05,0.091
3.771,531.724,267.027,10.299,268.289,10.471,47.586,0.006,47.586,0.007,25.99,1.889,33,107.001,9.79,0.027,0,-0.002,-4.032e-5,3.252e4,272.628,43.669,0.135,309.933,246.833,3.912,0.775,5.769e7,1099.613,443.173,0.636,0.636,0.381,0.057,0.198,0.004,0.017,3.533e-4,0,0,0,0,-3.914e-5,0.033,16.129,204.317,84.274,0.008,0.914,24.946,809.799,346.416,0.05,0.091
3.821,545.087,267.528,10.026,268.797,10.17,48.888,0.006,48.888,0.008,26.078,1.701,33,107.001,9.79,0.07,0,-0.001,-1.647e-5,3.25e4,245.96,43.626,0.135,309.686,246.731,3.903,0.776,5.775e7,1091.224,444.746,0.637,0.637,0.381,0.058,0.198,0.011,0.044,4.58e-4,0,0,0,0,-1.506e-5,0.033,16.129,204.317,84.304,0.011,0.947,24.826,808.54,346.344,0.05,0.092
3.871,558.476,268.016,9.739,269.29,9.874,50.194,0.007,50.194,0.008,26.16,1.625,33,107.001,9.79,0.082,0,-2.002e-4,-1.303e-5,3.247e4,219.494,43.583,0.135,309.627,246.628,3.906,0.778,5.781e7,1082.662,446.23,0.638,0.638,0.381,0.058,0.199,0.013,0.052,2.056e-4,0,0,0,0,-4.179e-7,0.033,16.129,204.317,84.316,0.014,0.905,24.706,807.278,346.271,0.05,0.092
3.921,571.889,268.489,9.443,269.768,9.578,51.504,0.007,51.504,0.008,26.241,1.603,33,107.001,9.79,0.08,0,8.164e-4,-1.066e-5,3.244e4,193.254,43.54,0.135,309.644,246.527,3.913,0.779,5.786e7,1073.931,447.664,0.638,0.638,0.381,0.058,0.199,0.013,0.05,-6.957e-5,0,0,0,0,6.927e-6,0.033,16.129,204.317,84.31,0.016,0.89,24.586,806.014,346.198,0.05,0.092
3.971,585.325,268.947,9.138,270.232,9.28,52.818,0.007,52.818,0.008,26.32,1.619,33,107.001,9.79,0.069,0,0.002,-7.104e-6,3.242e4,167.227,43.498,0.135,309.714,246.426,3.924,0.781,5.791e7,1065.036,449.057,0.639,0.639,0.381,0.059,0.199,0.011,0.043,-2.115e-5,0,0,0,0,3.484e-5,0.033,16.129,204.317,84.286,0.017,0.921,24.465,804.748,346.125,0.05,0.093
4.021,598.783,269.389,8.822,270.679,8.986,54.136,0.008,54.136,0.008,26.402,1.711,33,107.001,9.79,0.038,0,0.003,-1.903e-5,3.239e4,141.412,43.456,0.135,309.894,246.326,3.941,0.782,5.796e7,1055.978,450.377,0.639,0.639,0.381,0.059,0.2,0.006,0.024,1.934e-4,0,0,0,0,6.815e-5,0.033,16.129,204.317,84.245,0.017,0.924,24.344,803.48,346.051,0.05,0.093
4.071,612.263,269.815,8.497,271.112,8.696,55.458,0.008,55.458,0.008,26.491,1.848,33,107.001,9.79,0.006,0,-0.003,-8.137e-5,3.237e4,115.837,43.414,0.135,310.142,246.227,3.963,0.784,5.8e7,1046.764,451.656,0.64,0.64,0.38,0.059,0.2,0.001,0.005,1.501e-4,0,0,0,0,-7.824e-5,0.033,16.129,204.317,84.196,0.016,0.901,24.223,802.26,345.978,0.05,0.094
4.121,625.764,270.224,8.171,271.529,8.402,56.785,0.008,56.785,0.008,26.586,1.958,33,107.001,9.789,0.043,0,-0.002,-1.106e-5,3.234e4,90.485,43.373,0.135,309.908,246.128,3.954,0.785,5.805e7,1037.396,452.888,0.64,0.64,0.38,0.06,0.2,0.007,0.027,4.35e-4,0,0,0,0,-5.895e-5,0.033,16.129,204.317,84.149,0.015,0.901,24.102,801.04,345.904,0.05,0.094
4.171,639.285,270.617,7.845,271.93,8.103,58.116,0.009,58.116,0.009,26.685,2.03,33,107.001,9.789,0.069,0,-0.002,-4.242e-6,3.232e4,65.356,43.332,0.135,309.765,246.03,3.952,0.787,5.809e7,1027.877,454.056,0.641,0.641,0.38,0.06,0.2,0.011,0.044,4.95e-4,0,0,0,0,-2.933e-5,0.033,16.129,204.317,84.111,0.014,0.895,23.98,799.819,345.831,0.05,0.095
4.221,652.82,270.76,2.858,272.08,3.263,59.453,0.009,59.453,0.009,26.762,1.575,33,107.001,9.789,0.084,0,-6.307e-4,-4.346e-6,3.23e4,45.733,43.3,0.135,309.682,245.954,3.951,0.787,5.807e7,865.943,454.191,0.641,0.641,0.38,0.06,0.201,0.014,0.054,-1.515e-4,0,0,0,0,-4.065e-6,0.033,16.129,204.317,84.09,0.012,0.859,23.859,798.596,345.757,0.05,0.095
4.23,655.188,270.592,-19.219,271.911,19.232,59.687,0.009,59.687,0.009,26.756,0.708,33,107.001,9.789,0.085,0,-4.188e-4,-5.902e-6,3.229e4,43.557,43.296,0.135,309.675,245.945,3.951,0.787,5.803e7,148.384,453.426,0.641,0.641,0.38,0.06,0.2,0.014,0.054,-3.101e-4,0,0,0,0,-1.794e-6,0.033,16.129,204.317,84.089,0.012,0.855,23.837,798.382,345.744,0.009,0.095
4.243,658.737,270.28,-23.746,271.6,23.775,60.038,0.009,60.038,0.009,26.741,1.18,33,107.001,9.789,0.084,0,-1.222e-4,-6.176e-6,3.229e4,43.557,43.296,0.135,309.672,245.945,3.951,0.786,5.795e7,0,452.036,0.64,0.64,0.38,0.06,0.2,0.014,0.053,1.745e-4,0,0,0,0,-1.53e-7,0.033,16.129,204.317,84.087,0.012,0.848,23.805,798.062,345.725,0.013,0.096
4.263,664.054,269.813,-23.681,271.133,23.711,60.564,0.009,60.564,0.009,26.717,1.185,33,107.001,9.789,0.081,0,3.045e-4,-9.777e-6,3.229e4,43.557,43.296,0.135,309.677,245.945,3.951,0.785,5.783e7,0,449.962,0.64,0.64,0.38,0.059,0.2,0.013,0.052,-8.203e-5,0,0,0,0,9.542e-7,0.033,16.129,204.317,84.088,0.011,0.835,23.758,797.581,345.696,0.02,0.096
4.292,672.012,269.115,-23.582,270.435,23.613,61.353,0.01,61.353,0.009,26.682,1.207,33,107.001,9.789,0.072,0,9.102e-4,-6.332e-6,3.229e4,43.557,43.296,0.135,309.71,245.945,3.953,0.783,5.765e7,0,446.874,0.639,0.639,0.381,0.059,0.2,0.012,0.046,4.962e-4,0,0,0,0,8.57e-6,0.033,16.129,204.317,84.095,0.011,0.811,23.686,796.863,345.653,0.03,0.097
4.337,683.909,268.074,-23.433,269.393,23.468,62.533,0.01,62.533,0.009,26.627,1.274,33,107.001,9.789,0.048,0,0.002,-4.689e-6,3.229e4,43.557,43.296,0.135,309.821,245.945,3.96,0.78,5.739e7,0,442.298,0.638,0.638,0.381,0.058,0.199,0.008,0.03,-2.024e-5,0,0,0,0,2.674e-5,0.033,16.129,204.317,84.115,0.011,0.779,23.579,795.788,345.588,0.044,0.097
4.387,697.284,266.907,-23.259,268.225,23.303,63.863,0.01,63.863,0.009,26.56,1.437,33,107.001,9.789,0.007,0,-0.002,-9.627e-5,3.229e4,43.557,43.296,0.135,310.11,245.945,3.978,0.777,5.71e7,0,437.251,0.637,0.637,0.381,0.058,0.198,0.001,0.004,-2.106e-4,0,0,0,0,-3.803e-5,0.033,16.129,204.317,84.148,0.012,0.832,23.459,794.58,345.515,0.05,0.098
4.437,710.6,265.748,-23.09,267.064,23.144,65.189,0.011,65.189,0.009,26.484,1.575,33,107.001,9.789,0.055,0,-0.001,-7.283e-6,3.229e4,43.557,43.296,0.135,309.751,245.945,3.956,0.773,5.681e7,0,432.285,0.636,0.636,0.381,0.057,0.198,0.009,0.035,4.068e-4,0,0,0,0,-2.269e-5,0.033,16.129,204.317,84.18,0.014,0.869,23.34,793.377,345.443,0.05,0.098
4.487,723.859,264.597,-22.929,265.911,22.989,66.511,0.011,66.511,0.009,26.403,1.661,33,107.001,9.789,0.087,0,-5.432e-4,-6.04e-6,3.229e4,43.557,43.296,0.135,309.542,245.945,3.943,0.77,5.652e7,0,427.396,0.635,0.635,0.381,0.056,0.197,0.014,0.055,-2.742e-4,0,0,0,0,-3.157e-6,0.033,16.129,204.317,84.198,0.015,0.893,23.221,792.179,345.371,0.05,0.099
4.537,737.06,263.455,-22.778,264.766,22.839,67.829,0.011,67.829,0.01,26.319,1.671,33,107.001,9.789,0.096,0,6.432e-4,-9.367e-7,3.229e4,43.557,43.296,0.135,309.471,245.945,3.939,0.767,5.623e7,0,422.573,0.634,0.634,0.382,0.056,0.196,0.015,0.06,7.989e-5,0,0,0,0,4.464e-6,0.032,16.129,204.317,84.197,0.016,0.901,23.102,790.987,345.299,0.05,0.099
4.587,750.204,262.319,-22.638,263.628,22.694,69.143,0.012,69.143,0.01,26.237,1.592,33,107.001,9.789,0.076,0,0.002,-8.67e-6,3.229e4,43.557,43.296,0.135,309.558,245.945,3.944,0.764,5.595e7,0,417.805,0.633,0.633,0.382,0.055,0.196,0.012,0.048,2.303e-4,0,0,0,0,3.28e-5,0.032,16.129,204.317,84.175,0.017,0.872,22.984,789.799,345.227,0.05,0.1
4.637,763.292,261.191,-22.503,262.498,22.552,70.453,0.012,70.453,0.01,26.16,1.477,33,107.001,9.789,0.043,-6.489e-9,0.002,-1.926e-5,3.229e4,43.557,43.296,0.135,309.715,245.945,3.954,0.761,5.566e7,0,413.116,0.632,0.632,0.382,0.055,0.195,0.007,0.027,-1.494e-4,0,0,0,0,6.579e-5,0.032,16.129,204.317,84.137,0.018,0.858,22.866,788.617,345.156,0.05,0.101
4.687,776.324,260.069,-22.373,261.374,22.413,71.759,0.012,71.759,0.01,26.09,1.351,33,107.001,9.789,0.005,0,0.003,-1.208e-4,3.229e4,43.557,43.296,0.135,309.835,245.945,3.961,0.758,5.538e7,0,408.507,0.631,0.631,0.382,0.054,0.195,8.221e-4,0.004,2.924e-4,0,0,0,0,8.357e-5,0.032,16.129,204.317,84.089,0.018,0.858,22.749,787.44,345.085,0.05,0.101
4.737,789.299,258.954,-22.244,260.258,22.278,73.062,0.013,73.062,0.01,26.025,1.229,33,107.001,9.789,0.032,0,-0.003,-1.262e-5,3.229e4,43.557,43.296,0.135,309.747,245.945,3.956,0.755,5.51e7,0,403.972,0.63,0.63,0.383,0.053,0.194,0.005,0.021,-3.325e-4,0,0,0,0,-7.395e-5,0.032,16.129,204.317,84.04,0.019,0.858,22.633,786.268,345.014,0.05,0.102
4.787,802.219,257.845,-22.115,259.149,22.144,74.362,0.013,74.362,0.01,25.966,1.139,33,107.001,9.789,0.059,0,-0.002,-1.428e-5,3.229e4,43.557,43.296,0.135,309.572,245.945,3.945,0.752,5.482e7,0,399.511,0.629,0.629,0.383,0.053,0.193,0.009,0.037,-4.684e-4,0,0,0,0,-4.552e-5,0.032,16.129,204.317,83.998,0.019,0.87,22.517,785.101,344.944,0.05,0.102
4.837,815.084,256.742,-21.983,258.046,22.01,75.659,0.014,75.659,0.01,25.911,1.092,33,107.001,9.789,0.072,0,-0.001,-2.968e-6,3.229e4,43.557,43.296,0.135,309.475,245.945,3.939,0.748,5.455e7,0,395.117,0.628,0.628,0.383,0.052,0.193,0.012,0.046,-2.947e-4,0,0,0,0,-1.699e-5,0.032,16.129,204.317,83.969,0.02,0.884,22.401,783.939,344.874,0.05,0.102
4.887,827.893,255.646,-21.848,256.951,21.875,76.953,0.014,76.953,0.01,25.857,1.095,33,107.001,9.789,0.069,0,-3.858e-4,5.178e-6,3.229e4,43.557,43.296,0.135,309.474,245.945,3.939,0.745,5.428e7,0,390.787,0.627,0.627,0.383,0.052,0.192,0.011,0.043,1.622e-5,0,0,0,0,-1.705e-6,0.031,16.129,204.317,83.955,0.02,0.906,22.286,782.782,344.804,0.05,0.103
4.937,840.649,254.557,-21.711,255.862,21.74,78.245,0.014,78.245,0.011,25.801,1.128,33,107.001,9.789,0.054,0,3.342e-4,5.817e-7,3.229e4,43.557,43.296,0.135,309.535,245.945,3.943,0.742,5.4e7,0,386.515,0.626,0.626,0.383,0.051,0.192,0.009,0.033,-1.126e-6,0,0,0,0,1.29e-6,0.031,16.129,204.317,83.955,0.019,0.915,22.172,781.63,344.735,0.05,0.103
4.987,853.349,253.475,-21.575,254.779,21.607,79.533,0.015,79.533,0.011,25.743,1.172,33,107.001,9.789,0.034,0,8.399e-4,2.026e-6,3.229e4,43.557,43.296,0.135,309.619,245.945,3.948,0.739,5.373e7,0,382.295,0.625,0.625,0.384,0.051,0.191,0.005,0.022,-1.635e-4,0,0,0,0,8.219e-6,0.031,16.129,204.317,83.966,0.019,0.897,22.057,780.483,344.666,0.05,0.104
5.037,865.996,252.4,-21.439,253.703,21.474,80.819,0.015,80.819,0.011,25.683,1.236,33,107.001,9.789,0.007,0,0.001,-7.922e-6,3.229e4,43.557,43.296,0.135,309.751,245.945,3.956,0.736,5.346e7,0,378.139,0.625,0.625,0.384,0.05,0.191,0.001,0.005,8.048e-5,0,0,0,0,1.409e-5,0.031,16.129,204.317,83.984,0.018,0.885,21.944,779.34,344.597,0.05,0.104
5.087,878.589,251.331,-21.303,252.634,21.344,82.101,0.016,82.101,0.011,25.62,1.312,33,107.001,9.789,0.024,0,-0.001,1.371e-6,3.229e4,43.557,43.296,0.135,309.643,245.945,3.949,0.734,5.32e7,0,374.051,0.624,0.624,0.384,0.05,0.19,0.004,0.015,-6.815e-5,0,0,0,0,-1.188e-5,0.031,16.129,204.317,84.004,0.017,0.89,21.831,778.203,344.528,0.05,0.105
5.137,891.129,250.269,-21.174,251.571,21.217,83.381,0.016,83.381,0.011,25.553,1.34,33,107.001,9.789,0.039,0,-6.166e-4,-1.156e-5,3.229e4,43.557,43.296,0.135,309.54,245.945,3.943,0.731,5.293e7,0,370.003,0.623,0.623,0.384,0.049,0.189,0.006,0.025,1.212e-4,0,0,0,0,-4.543e-6,0.031,16.129,204.317,84.018,0.017,0.847,21.718,777.07,344.46,0.05,0.105
5.187,903.616,249.214,-21.049,250.514,21.093,84.657,0.017,84.657,0.011,25.486,1.346,33,107.001,9.789,0.047,0,-1.478e-4,-4.686e-6,3.229e4,43.557,43.296,0.135,309.475,245.945,3.939,0.728,5.267e7,0,366.013,0.622,0.622,0.384,0.049,0.189,0.008,0.029,-3.288e-4,0,0,0,0,-2.633e-7,0.031,16.129,204.317,84.025,0.017,0.804,21.606,775.942,344.392,0.05,0.105
5.237,916.051,248.165,-20.927,249.463,20.97,85.929,0.017,85.929,0.011,25.418,1.352,33,107.001,9.789,0.054,0,3.898e-4,4.207e-6,3.229e4,43.557,43.296,0.135,309.419,245.945,3.935,0.725,5.241e7,0,362.092,0.621,0.621,0.385,0.048,0.188,0.009,0.034,7.646e-5,0,0,0,0,1.847e-6,0.031,16.129,204.317,84.023,0.017,0.8,21.494,774.819,344.324,0.05,0.106
5.287,928.433,247.121,-20.81,248.418,20.851,87.199,0.017,87.199,0.011,25.351,1.311,33,107.001,9.789,0.044,0,9.523e-4,1.58e-7,3.229e4,43.557,43.296,0.135,309.456,245.945,3.938,0.722,5.215e7,0,358.212,0.621,0.621,0.385,0.048,0.188,0.007,0.027,-3.12e-4,0,0,0,0,1.112e-5,0.03,16.129,204.317,84.01,0.017,0.767,21.383,773.7,344.257,0.05,0.106
5.337,940.763,246.083,-20.695,247.379,20.735,88.465,0.018,88.465,0.012,25.287,1.272,33,107.001,9.789,0.033,0,0.001,9.096e-7,3.229e4,43.557,43.296,0.135,309.499,245.945,3.94,0.719,5.189e7,0,354.398,0.62,0.62,0.385,0.048,0.187,0.005,0.021,3.347e-4,0,0,0,0,2.22e-5,0.03,16.129,204.317,83.989,0.018,0.766,21.272,772.587,344.19,0.05,0.107
5.387,953.041,245.051,-20.587,246.346,20.621,89.727,0.018,89.727,0.012,25.225,1.188,33,107.001,9.788,0.006,0,0.002,1.179e-5,3.229e4,43.557,43.296,0.135,309.636,245.945,3.949,0.716,5.163e7,0,350.62,0.619,0.619,0.385,0.047,0.187,9.519e-4,0.004,4.691e-4,0,0,0,0,3.151e-5,0.03,16.129,204.317,83.962,0.019,0.718,21.162,771.477,344.123,0.05,0.107
5.437,965.268,244.025,-20.479,245.319,20.509,90.987,0.019,90.987,0.012,25.168,1.111,33,107.001,9.788,0.02,0,-0.002,5.602e-6,3.229e4,43.557,43.296,0.135,309.52,245.945,3.942,0.713,5.138e7,0,346.897,0.618,0.618,0.385,0.047,0.186,0.003,0.012,3.711e-4,0,0,0,0,-2.83e-5,0.03,16.129,204.317,83.934,0.019,0.677,21.052,770.373,344.057,0.05,0.107
5.487,977.444,243.004,-20.369,244.298,20.397,92.244,0.019,92.244,0.012,25.114,1.073,33,107.001,9.788,0.031,0,-0.001,-1.428e-6,3.229e4,43.557,43.296,0.135,309.441,245.945,3.937,0.71,5.113e7,0,343.239,0.617,0.617,0.385,0.046,0.186,0.005,0.019,1.967e-4,0,0,0,0,-1.861e-5,0.03,16.129,204.317,83.91,0.019,0.681,20.943,769.273,343.99,0.05,0.108
5.537,989.569,241.988,-20.258,243.282,20.286,93.499,0.02,93.499,0.012,25.06,1.064,33,107.001,9.788,0.031,0,-8.834e-4,-4.545e-7,3.229e4,43.557,43.296,0.135,309.422,245.945,3.936,0.708,5.087e7,0,339.637,0.617,0.617,0.386,0.046,0.185,0.005,0.02,-9.578e-5,0,0,0,0,-9.974e-6,0.03,16.129,204.317,83.891,0.019,0.706,20.834,768.178,343.924,0.05,0.108
5.587,1001.643,240.978,-20.148,242.272,20.175,94.75,0.02,94.75,0.012,25.007,1.056,33,107.001,9.788,0.031,0,-5.788e-4,1.202e-5,3.229e4,43.557,43.296,0.135,309.401,245.945,3.934,0.705,5.063e7,0,336.075,0.616,0.616,0.386,0.046,0.185,0.005,0.019,3.456e-4,0,0,0,0,-4.317e-6,0.03,16.129,204.317,83.878,0.019,0.709,20.725,767.087,343.859,0.05,0.109
5.637,1013.667,239.973,-20.037,241.267,20.065,95.999,0.021,95.999,0.012,24.954,1.062,33,107.001,9.788,0.025,0,-2.77e-4,5.353e-7,3.229e4,43.557,43.296,0.135,309.42,245.945,3.935,0.702,5.038e7,0,332.56,0.615,0.615,0.386,0.045,0.184,0.004,0.016,5.69e-5,0,0,0,0,-9.971e-7,0.03,16.129,204.317,83.87,0.019,0.711,20.617,766.001,343.793,0.05,0.109
5.687,1025.64,238.974,-19.928,240.268,19.957,97.246,0.021,97.246,0.012,24.901,1.076,33,107.001,9.788,0.016,0,-7.07e-5,8.507e-6,3.229e4,43.557,43.296,0.135,309.448,245.945,3.937,0.699,5.013e7,0,329.089,0.615,0.615,0.386,0.045,0.184,0.003,0.01,-4.672e-4,0,0,0,0,-6.55e-8,0.029,16.129,204.317,83.867,0.02,0.71,20.51,764.92,343.728,0.05,0.11
5.737,1037.564,237.98,-19.818,239.274,19.849,98.489,0.022,98.489,0.013,24.846,1.11,33,107.001,9.788,0.001,0,-1.928e-5,-1.184e-5,3.229e4,43.557,43.296,0.135,309.539,245.945,3.943,0.696,4.989e7,0,325.671,0.614,0.614,0.386,0.044,0.183,1.966e-4,7.717e-4,2.132e-5,0,0,0,0,0,0.029,16.129,204.317,83.867,0.021,0.731,20.403,763.843,343.663,0.05,0.11
5.787,1049.438,236.992,-19.71,238.285,19.742,99.73,0.022,99.73,0.013,24.79,1.134,33,107.001,9.788,0.015,0,7.112e-5,-1.456e-5,3.229e4,43.557,43.296,0.135,309.423,245.945,3.936,0.694,4.964e7,0,322.294,0.613,0.613,0.387,0.044,0.183,0.002,0.01,1.224e-4,0,0,0,0,6.739e-8,0.029,16.129,204.317,83.867,0.022,0.741,20.296,762.77,343.598,0.05,0.11
5.837,1061.264,236.009,-19.603,237.302,19.638,100.968,0.022,100.968,0.013,24.733,1.158,33,107.001,9.788,0.029,0,2.722e-4,-1.4e-5,3.229e4,43.557,43.296,0.135,309.328,245.945,3.93,0.691,4.94e7,0,318.965,0.613,0.613,0.387,0.044,0.182,0.005,0.018,-2.725e-4,0,0,0,0,9.949e-7,0.029,16.129,204.317,83.864,0.024,0.761,20.19,761.702,343.534,0.05,0.111
5.887,1073.04,235.032,-19.5,236.324,19.535,102.203,0.023,102.203,0.013,24.675,1.161,33,107.001,9.788,0.034,0,5.947e-4,-1.446e-5,3.229e4,43.557,43.296,0.135,309.283,245.945,3.927,0.688,4.916e7,0,315.673,0.612,0.612,0.387,0.043,0.182,0.005,0.022,8.336e-5,0,0,0,0,4.79e-6,0.029,16.129,204.317,83.856,0.025,0.768,20.084,760.638,343.47,0.05,0.111
5.937,1084.767,234.059,-19.399,235.35,19.434,103.436,0.023,103.436,0.013,24.617,1.165,33,107.001,9.788,0.039,0,9.39e-4,-1.196e-5,3.229e4,43.557,43.296,0.135,309.235,245.945,3.924,0.686,4.892e7,0,312.431,0.611,0.611,0.387,0.043,0.181,0.006,0.025,1.623e-5,0,0,0,0,1.204e-5,0.029,16.129,204.317,83.842,0.025,0.799,19.979,759.579,343.406,0.05,0.112
5.987,1096.446,233.092,-19.303,234.382,19.336,104.665,0.024,104.665,0.013,24.559,1.128,33,107.001,9.788,0.028,0,0.001,-1.823e-5,3.229e4,43.557,43.296,0.135,309.281,245.945,3.927,0.683,4.869e7,0,309.214,0.611,0.611,0.387,0.043,0.181,0.004,0.017,-3.982e-4,0,0,0,0,2.245e-5,0.029,16.129,204.317,83.822,0.025,0.786,19.874,758.524,343.343,0.05,0.112
6.037,1108.076,232.129,-19.207,233.419,19.239,105.892,0.024,105.892,0.013,24.503,1.104,33,107.001,9.788,0.021,0,0.001,-1.862e-5,3.229e4,43.557,43.296,0.135,309.302,245.945,3.928,0.68,4.845e7,0,306.064,0.61,0.61,0.387,0.042,0.18,0.003,0.013,-1.848e-4,0,0,0,0,3.015e-5,0.029,16.129,204.317,83.797,0.025,0.812,19.769,757.506,343.279,0.05,0.113
6.087,1119.659,231.171,-19.116,232.46,19.145,107.116,0.025,107.116,0.013,24.449,1.052,33,107.001,9.788,0.002,0,0.002,-1.355e-4,3.229e4,43.557,43.296,0.135,309.262,245.945,3.926,0.678,4.822e7,0,302.945,0.609,0.609,0.388,0.042,0.18,3.934e-4,0.002,-5.308e-5,0,0,0,0,3.675e-5,0.028,16.129,204.317,83.769,0.025,0.801,19.665,756.504,343.216,0.05,0.113
6.137,1131.193,230.218,-19.026,231.507,19.052,108.337,0.025,108.337,0.013,24.398,0.992,33,107.001,9.788,0.02,0,-0.002,-1.747e-5,3.229e4,43.557,43.296,0.135,309.304,245.945,3.928,0.675,4.799e7,0,299.861,0.609,0.609,0.388,0.042,0.179,0.003,0.013,-1.803e-4,0,0,0,0,-3.274e-5,0.028,16.129,204.317,83.74,0.024,0.772,19.562,755.506,343.153,0.05,0.114
6.187,1142.68,229.268,-18.936,230.558,18.96,109.555,0.026,109.555,0.014,24.35,0.948,33,107.001,9.788,0.036,0,-0.001,-1.125e-5,3.229e4,43.557,43.296,0.135,309.191,245.945,3.921,0.672,4.776e7,0,296.818,0.608,0.608,0.388,0.041,0.179,0.006,0.023,9.103e-5,0,0,0,0,-2.268e-5,0.028,16.129,204.317,83.715,0.023,0.755,19.459,754.512,343.091,0.05,0.114
6.237,1154.12,228.324,-18.844,229.614,18.867,110.772,0.026,110.772,0.014,24.303,0.932,33,107.001,9.788,0.04,0,-9.112e-4,-5.958e-7,3.229e4,43.557,43.296,0.135,309.144,245.945,3.918,0.67,4.753e7,0,293.819,0.607,0.607,0.388,0.041,0.178,0.006,0.025,1.771e-4,0,0,0,0,-1.191e-5,0.028,16.129,204.317,83.695,0.021,0.762,19.356,753.522,343.029,0.05,0.115
6.287,1165.513,227.384,-18.752,228.674,18.775,111.986,0.027,111.986,0.014,24.256,0.936,33,107.001,9.788,0.035,0,-5.8e-4,4.745e-6,3.229e4,43.557,43.296,0.135,309.147,245.945,3.919,0.667,4.731e7,0,290.859,0.607,0.607,0.388,0.041,0.178,0.006,0.022,-4.168e-4,0,0,0,0,-4.865e-6,0.028,16.129,204.317,83.682,0.02,0.777,19.254,752.536,342.967,0.05,0.115
6.337,1176.859,226.449,-18.657,227.739,18.682,113.197,0.027,113.197,0.014,24.209,0.975,33,107.001,9.788,0.015,0,-3.342e-4,1.382e-5,3.229e4,43.557,43.296,0.135,309.214,245.945,3.923,0.664,4.708e7,0,287.947,0.606,0.606,0.388,0.04,0.177,0.002,0.009,-3.251e-4,0,0,0,0,-1.629e-6,0.028,16.129,204.317,83.674,0.02,0.835,19.152,751.554,342.905,0.05,0.115
6.387,1188.158,225.518,-18.564,226.809,18.591,114.407,0.028,114.407,0.014,24.159,0.998,33,107.001,9.788,0.001,0,-2.706e-4,8.714e-5,3.229e4,43.557,43.296,0.135,308.844,245.945,3.9,0.662,4.686e7,0,285.059,0.606,0.606,0.389,0.04,0.177,2.297e-4,0.001,1.77e-4,0,0,0,0,-1.076e-6,0.028,16.129,204.317,83.669,0.02,0.859,19.05,750.577,342.843,0.05,0.116
