# Time (s),Altitude (m),Vertical velocity (m/s),Vertical acceleration (m/s²),Total velocity (m/s),Total acceleration (m/s²),Position East of launch (m),Position North of launch (m),Lateral distance (m),Lateral direction (°),Lateral velocity (m/s),Lateral acceleration (m/s²),Latitude (°),Longitude (°),Gravitational acceleration (m/s²),Angle of attack (°),Roll rate (r/s),Pitch rate (r/s),Yaw rate (r/s),Mass (g),Motor mass (g),Longitudinal moment of inertia (kg·m²),Rotational moment of inertia (kg·m²),CP location (cm),CG location (cm),Stability margin calibers (​),Mach number (​),Reynolds number (​),Thrust (N),Drag force (N),Drag coefficient (​),Axial drag coefficient (​),Friction drag coefficient (​),Pressure drag coefficient (​),Base drag coefficient (​),Normal force coefficient (​),Pitch moment coefficient (​),Yaw moment coefficient (​),Side force coefficient (​),Roll moment coefficient (​),Roll forcing coefficient (​),Roll damping coefficient (​),Pitch damping coefficient (​),Coriolis acceleration (m/s²),Reference length (cm),Reference area (cm²),Vertical orientation (zenith) (°),Lateral orientation (azimuth) (°),Wind velocity (m/s),Air temperature (°C),Air pressure (mbar),Speed of sound (m/s),Simulation time step (s),Computation time (s)
0.01,7.315e-5,0.015,1.464,0.015,1.464,0,0,0,0,0,0,33,107,9.791,89.79,0,0,0,3.819e4,5837.253,59.032,0.129,NaN,255.91,NaN,0.011,8.727e5,429.891,1.342e-8,0.686,8.431e-8,0.552,0.013,0.12,NaN,NaN,NaN,NaN,NaN,NaN,NaN,NaN,1.79e-6,16.129,204.317,90,0,3.999,30.109,848.11,349.545,0.01,0.002
0.02,0.001,0.254,23.98,0.254,23.98,0,0,0,0,0,0,33,107,9.791,86.377,0,0,0,3.819e4,5830.95,59.023,0.129,NaN,255.891,NaN,0.012,8.788e5,1289.653,6.762e-5,0.685,4.191e-4,0.552,0.013,0.12,NaN,NaN,NaN,NaN,NaN,NaN,NaN,NaN,3.112e-5,16.129,204.317,90,0,4.018,30.109,848.11,349.545,0.01,0.003
0.03,0.006,0.719,46.504,0.719,46.504,0,0,0,0,0,0,33,107,9.791,79.899,0,0,0,3.818e4,5824.646,59.015,0.129,NaN,255.872,NaN,0.012,8.953e5,2149.415,0.001,0.683,0.008,0.549,0.013,0.12,NaN,NaN,NaN,NaN,NaN,NaN,NaN,NaN,8.799e-5,16.129,204.317,90,0,4.038,30.109,848.11,349.545,0.01,0.004
0.04,0.016,1.298,57.891,1.298,57.891,0,0,0,0,0,0,33,107,9.791,72.261,0,0,0,3.817e4,5811.98,58.997,0.129,NaN,255.833,NaN,0.012,9.3e5,2583.314,0.007,0.679,0.041,0.545,0.013,0.12,NaN,NaN,NaN,NaN,NaN,NaN,NaN,NaN,1.588e-4,16.129,204.317,90,0,4.058,30.109,848.11,349.545,0.01,0.004
0.05,0.032,1.879,58.123,1.879,58.123,0,0,0,0,0,0,33,107,9.791,65.259,0,0,0,3.816e4,5799.314,58.979,0.129,NaN,255.795,NaN,0.013,9.801e5,2591.349,0.02,0.673,0.102,0.54,0.013,0.12,NaN,NaN,NaN,NaN,NaN,NaN,NaN,NaN,2.299e-4,16.129,204.317,90,0,4.078,30.108,848.11,349.545,0.01,0.005
0.06,0.054,2.463,58.356,2.463,58.356,0,0,0,0,0,0,33,107,9.791,58.504,0,0,0,3.814e4,5786.648,58.961,0.129,NaN,255.756,NaN,0.013,1.029e6,2599.384,0.042,0.668,0.189,0.534,0.013,0.12,NaN,NaN,NaN,NaN,NaN,NaN,NaN,NaN,3.012e-4,16.129,204.317,90,0,4.019,30.108,848.109,349.545,0.01,0.006
0.07,0.082,3.049,58.588,3.049,58.588,0,0,0,0,0,0,33,107,9.791,52.415,0,0,0,3.813e4,5773.864,58.943,0.129,NaN,255.717,NaN,0.014,1.091e6,2607.393,0.072,0.662,0.288,0.528,0.013,0.12,NaN,NaN,NaN,NaN,NaN,NaN,NaN,NaN,3.729e-4,16.129,204.317,90,0,3.961,30.108,848.109,349.545,0.01,0.006
0.08,0.115,3.637,58.819,3.637,58.819,0,0,0,0,0,0,33,107,9.791,47.016,0,0,0,3.812e4,5761.081,58.925,0.129,NaN,255.678,NaN,0.015,1.164e6,2615.377,0.11,0.655,0.388,0.522,0.013,0.12,NaN,NaN,NaN,NaN,NaN,NaN,NaN,NaN,4.448e-4,16.129,204.317,90,0,3.902,30.108,848.108,349.545,0.01,0.007
0.09,0.154,4.227,59.051,4.227,59.051,0,0,0,0,0,0,33,107,9.791,42.278,0,0,0,3.81e4,5748.297,58.908,0.129,NaN,255.639,NaN,0.016,1.247e6,2623.361,0.156,0.648,0.48,0.515,0.013,0.12,NaN,NaN,NaN,NaN,NaN,NaN,NaN,NaN,5.17e-4,16.129,204.317,90,0,3.843,30.108,848.107,349.545,0.01,0.008
0.1,0.2,4.82,59.282,4.82,59.282,0,0,0,0,0,0,33,107,9.791,38.14,0,0,0,3.809e4,5735.397,58.889,0.129,NaN,255.6,NaN,0.018,1.337e6,2631.319,0.209,0.641,0.559,0.508,0.013,0.12,NaN,NaN,NaN,NaN,NaN,NaN,NaN,NaN,5.895e-4,16.129,204.317,90,0,3.785,30.108,848.106,349.544,0.01,0.009
0.11,0.251,5.415,59.512,5.415,59.512,0,0,0,0,0,0,33,107,9.791,35.058,0,0,0,3.808e4,5722.497,58.871,0.129,NaN,255.56,NaN,0.019,1.444e6,2639.25,0.267,0.634,0.612,0.5,0.013,0.12,NaN,NaN,NaN,NaN,NaN,NaN,NaN,NaN,6.623e-4,16.129,204.317,90,0,3.8,30.108,848.105,349.544,0.01,0.009
0.12,0.308,6.012,59.742,6.012,59.742,0,0,0,0,0,0,33,107,9.791,32.395,0,0,0,3.807e4,5709.596,58.853,0.129,NaN,255.521,NaN,0.02,1.554e6,2647.181,0.33,0.627,0.654,0.493,0.013,0.12,NaN,NaN,NaN,NaN,NaN,NaN,NaN,NaN,7.354e-4,16.129,204.317,90,0,3.815,30.108,848.104,349.544,0.01,0.01
0.13,0.371,6.612,59.972,6.612,59.972,0,0,0,0,0,0,33,107,9.791,30.081,0,0,0,3.805e4,5696.58,58.835,0.129,NaN,255.481,NaN,0.022,1.668e6,2655.084,0.398,0.62,0.686,0.487,0.013,0.12,NaN,NaN,NaN,NaN,NaN,NaN,NaN,NaN,8.087e-4,16.129,204.317,90,0,3.83,30.108,848.103,349.544,0.01,0.011
0.14,0.44,7.214,60.201,7.214,60.201,0,0,0,0,0,0,33,107,9.791,28.058,0,0,0,3.804e4,5683.564,58.816,0.129,NaN,255.441,NaN,0.023,1.784e6,2662.96,0.472,0.614,0.709,0.481,0.013,0.12,NaN,NaN,NaN,NaN,NaN,NaN,NaN,NaN,8.823e-4,16.129,204.317,90,0,3.845,30.108,848.102,349.544,0.01,0.011
0.15,0.515,7.818,60.43,7.818,60.43,0,0,0,0,0,0,33,107,9.791,26.277,0,0,0,3.803e4,5670.548,58.798,0.129,NaN,255.401,NaN,0.025,1.903e6,2670.836,0.55,0.608,0.727,0.475,0.013,0.12,NaN,NaN,NaN,NaN,NaN,NaN,NaN,NaN,9.562e-4,16.129,204.317,90,0,3.86,30.108,848.1,349.544,0.01,0.012
0.16,0.596,8.424,60.658,8.424,60.658,0,0,0,0,0,0,33,107,9.791,24.77,0,0,0,3.801e4,5657.417,58.78,0.129,NaN,255.361,NaN,0.027,2.025e6,2678.683,0.632,0.603,0.738,0.469,0.013,0.12,NaN,NaN,NaN,NaN,NaN,NaN,NaN,NaN,0.001,16.129,204.317,90,0,3.887,30.107,848.099,349.544,0.01,0.012
0.17,0.684,9.033,60.886,9.033,60.886,0,0,0,0,0,0,33,107,9.791,23.429,0,0,0,3.8e4,5644.286,58.761,0.129,NaN,255.32,NaN,0.028,2.149e6,2686.501,0.719,0.598,0.745,0.464,0.013,0.12,NaN,NaN,NaN,NaN,NaN,NaN,NaN,NaN,0.001,16.129,204.317,90,0,3.914,30.107,848.097,349.544,0.01,0.013
0.18,0.777,9.644,61.114,9.644,61.114,0,0,0,0,0,0,33,107,9.791,22.23,0,0,0,3.799e4,5631.155,58.743,0.129,NaN,255.28,NaN,0.03,2.274e6,2694.319,0.81,0.593,0.749,0.46,0.013,0.12,NaN,NaN,NaN,NaN,NaN,NaN,NaN,NaN,0.001,16.129,204.317,90,0,3.942,30.107,848.095,349.544,0.01,0.013
0.19,0.877,10.257,61.341,10.257,61.341,0,0,0,0,0,0,33,107,9.791,21.152,0,0,0,3.797e4,5617.909,58.724,0.129,NaN,255.239,NaN,0.031,2.4e6,2702.107,0.905,0.589,0.751,0.455,0.013,0.12,NaN,NaN,NaN,NaN,NaN,NaN,NaN,NaN,0.001,16.129,204.317,90,0,3.969,30.107,848.094,349.544,0.01,0.014
0.2,0.982,10.873,61.568,10.873,61.568,0,0,0,0,0,0,33,107,9.791,20.179,0,0,0,3.796e4,5604.664,58.705,0.129,NaN,255.198,NaN,0.033,2.528e6,2709.866,1.004,0.584,0.751,0.451,0.013,0.12,NaN,NaN,NaN,NaN,NaN,NaN,NaN,NaN,0.001,16.129,204.317,90,0,3.996,30.107,848.091,349.544,0.01,0.015
0.21,1.094,11.491,61.794,11.491,61.794,0,0,0,0,0,0,33,107,9.791,19.038,0,0,0,3.795e4,5591.418,58.686,0.129,NaN,255.158,NaN,0.035,2.653e6,2717.624,1.105,0.58,0.751,0.447,0.013,0.12,NaN,NaN,NaN,NaN,NaN,NaN,NaN,NaN,0.001,16.129,204.317,90,0,3.965,30.107,848.089,349.543,0.01,0.016
0.22,1.212,12.111,62.021,12.111,62.021,0,0,0,0,0,0,33,107,9.791,17.996,0,0,0,3.793e4,5578.06,58.667,0.129,NaN,255.117,NaN,0.036,2.779e6,2725.352,1.208,0.577,0.749,0.443,0.013,0.12,NaN,NaN,NaN,NaN,NaN,NaN,NaN,NaN,0.001,16.129,204.317,90,0,3.934,30.106,848.087,349.543,0.01,0.022
0.23,1.336,12.733,62.246,12.733,62.246,0,0,0,0,0,0,33,107,9.791,17.042,0,0,0,3.792e4,5564.701,58.649,0.129,NaN,255.075,NaN,0.038,2.907e6,2733.048,1.315,0.573,0.745,0.439,0.013,0.12,NaN,NaN,NaN,NaN,NaN,NaN,NaN,NaN,0.002,16.129,204.317,90,0,3.903,30.106,848.085,349.543,0.01,0.023
0.24,1.467,13.358,62.472,13.358,62.472,0,0,0,0,0,0,33,107,9.791,16.165,0,0,0,3.791e4,5551.342,58.63,0.129,NaN,255.034,NaN,0.04,3.035e6,2740.745,1.424,0.57,0.739,0.436,0.013,0.12,NaN,NaN,NaN,NaN,NaN,NaN,NaN,NaN,0.002,16.129,204.317,90,0,3.872,30.106,848.082,349.543,0.01,0.024
0.25,1.603,13.985,62.697,13.985,62.697,0,0,0,0,0,0,33,107,9.791,15.358,0,0,0,3.789e4,5537.871,58.611,0.129,NaN,254.993,NaN,0.041,3.165e6,2748.41,1.532,0.567,0.732,0.433,0.013,0.12,NaN,NaN,NaN,NaN,NaN,NaN,NaN,NaN,0.002,16.129,204.317,90,0,3.841,30.106,848.08,349.543,0.01,0.025
0.26,1.746,14.614,62.921,14.614,62.921,0,0,0,0,0,0,33,107,9.791,14.823,0,0,0,3.788e4,5524.4,58.591,0.129,NaN,254.951,NaN,0.043,3.299e6,2756.042,1.648,0.563,0.725,0.43,0.013,0.12,NaN,NaN,NaN,NaN,NaN,NaN,NaN,NaN,0.002,16.129,204.317,90,0,3.867,30.105,848.077,349.543,0.01,0.026
0.27,1.896,15.245,63.145,15.245,63.145,0,0,0,0,0,0,33,107,9.791,14.328,0,0,0,3.787e4,5510.929,58.572,0.129,NaN,254.909,NaN,0.045,3.434e6,2763.674,1.767,0.56,0.717,0.427,0.013,0.12,NaN,NaN,NaN,NaN,NaN,NaN,NaN,NaN,0.002,16.129,204.317,90,0,3.894,30.105,848.074,349.543,0.01,0.027
0.28,2.051,15.879,63.369,15.879,63.369,0,0,0,0,0,0,33,107,9.791,13.868,0,0,0,3.785e4,5497.346,58.553,0.129,NaN,254.867,NaN,0.047,3.57e6,2771.274,1.89,0.557,0.71,0.424,0.013,0.12,NaN,NaN,NaN,NaN,NaN,NaN,NaN,NaN,0.002,16.129,204.317,90,0,3.92,30.105,848.071,349.542,0.01,0.028
0.29,2.213,16.514,63.592,16.514,63.592,0,0,0,0,0,0,33,107,9.791,13.44,0,0,0,3.784e4,5483.764,58.534,0.129,NaN,254.825,NaN,0.049,3.706e6,2778.84,2.018,0.556,0.703,0.422,0.013,0.12,NaN,NaN,NaN,NaN,NaN,NaN,NaN,NaN,0.002,16.129,204.317,90,0,3.946,30.105,848.068,349.542,0.01,0.029
0.3,2.382,17.152,63.814,17.152,63.814,0,0,0,0,0,0,33,107,9.791,13.041,0,0,0,3.783e4,5470.181,58.514,0.129,NaN,254.783,NaN,0.05,3.843e6,2786.406,2.156,0.555,0.699,0.421,0.013,0.12,NaN,NaN,NaN,NaN,NaN,NaN,NaN,NaN,0.002,16.129,204.317,90,0,3.973,30.104,848.065,349.542,0.01,0.029
0.31,2.556,17.793,64.037,17.793,64.037,0,0,0,0,0,0,33,107,9.791,12.576,0,0,0,3.781e4,5456.488,58.495,0.129,NaN,254.741,NaN,0.052,3.979e6,2793.938,2.294,0.555,0.694,0.421,0.014,0.12,NaN,NaN,NaN,NaN,NaN,NaN,NaN,NaN,0.002,16.129,204.317,90,0,3.969,30.104,848.062,349.542,0.01,0.031
0.32,2.738,18.435,64.258,18.435,64.258,0,0,0,0,0,0,33,107,9.791,12.141,0,0,0,3.78e4,5442.795,58.475,0.129,NaN,254.698,NaN,0.054,4.116e6,2801.436,2.435,0.555,0.688,0.421,0.014,0.12,NaN,NaN,NaN,NaN,NaN,NaN,NaN,NaN,0.002,16.129,204.317,90,0,3.966,30.104,848.058,349.542,0.01,0.031
0.33,2.925,19.08,64.479,19.08,64.479,0,0,0,0,0,0,33,107,9.791,11.733,0,0,0,3.779e4,5429.102,58.456,0.129,NaN,254.656,NaN,0.056,4.253e6,2808.934,2.581,0.555,0.683,0.421,0.014,0.12,NaN,NaN,NaN,NaN,NaN,NaN,NaN,NaN,0.002,16.129,204.317,90,0,3.963,30.103,848.054,349.541,0.01,0.032
0.34,3.119,19.727,64.7,19.727,64.7,0,0,0,0,0,0,33,107,9.791,11.349,0,0,0,3.777e4,5415.3,58.436,0.129,NaN,254.613,NaN,0.058,4.391e6,2816.396,2.73,0.554,0.678,0.42,0.014,0.12,NaN,NaN,NaN,NaN,NaN,NaN,NaN,NaN,0.002,16.129,204.317,90,0,3.959,30.103,848.051,349.541,0.01,0.033
0.35,3.32,20.376,64.92,20.376,64.92,0,0,0,0,0,0,33,107,9.791,10.987,0,0,0,3.776e4,5401.498,58.416,0.129,NaN,254.57,NaN,0.059,4.53e6,2823.823,2.884,0.554,0.673,0.42,0.014,0.12,NaN,NaN,NaN,NaN,NaN,NaN,NaN,NaN,0.002,16.129,204.317,90,0,3.956,30.103,848.047,349.541,0.01,0.033
0.36,3.527,21.027,65.14,21.027,65.14,0,0,0,0,0,0,33,107,9.791,10.712,0,0,0,3.774e4,5387.695,58.397,0.129,NaN,254.527,NaN,0.061,4.671e6,2831.25,3.047,0.554,0.669,0.42,0.014,0.12,NaN,NaN,NaN,NaN,NaN,NaN,NaN,NaN,0.003,16.129,204.317,90,0,3.978,30.102,848.043,349.541,0.01,0.034
0.37,3.74,21.681,65.359,21.681,65.359,0,0,0,0,0,0,33,107,9.791,10.451,0,0,0,3.773e4,5373.784,58.377,0.129,NaN,254.483,NaN,0.063,4.812e6,2838.641,3.216,0.554,0.665,0.42,0.014,0.121,NaN,NaN,NaN,NaN,NaN,NaN,NaN,NaN,0.003,16.129,204.317,90,0,3.999,30.102,848.039,349.541,0.01,0.035
0.38,3.96,22.336,65.577,22.336,65.577,0,0,0,0,0,0,33,107,9.791,10.205,0,0,0,3.772e4,5359.874,58.357,0.129,NaN,254.44,NaN,0.065,4.953e6,2845.995,3.389,0.553,0.661,0.419,0.014,0.121,NaN,NaN,NaN,NaN,NaN,NaN,NaN,NaN,0.003,16.129,204.317,90,0,4.021,30.101,848.035,349.54,0.01,0.036
0.39,4.187,22.994,65.795,22.994,65.795,0,0,0,0,0,0,33,107,9.791,9.971,0,0,0,3.77e4,5345.963,58.337,0.129,NaN,254.397,NaN,0.067,5.095e6,2853.349,3.567,0.553,0.658,0.419,0.014,0.121,NaN,NaN,NaN,NaN,NaN,NaN,NaN,NaN,0.003,16.129,204.317,90,0,4.043,30.101,848.03,349.54,0.01,0.037
0.4,4.42,23.654,66.012,23.654,66.012,0,0,0,0,0,0,33,107,9.791,9.749,0,0,0,3.769e4,5331.945,58.317,0.129,NaN,254.353,NaN,0.069,5.238e6,2860.666,3.751,0.553,0.654,0.419,0.014,0.121,NaN,NaN,NaN,NaN,NaN,NaN,NaN,NaN,0.003,16.129,204.317,90,0,4.064,30.101,848.026,349.54,0.01,0.037
0.41,4.66,24.316,66.229,24.316,66.229,0,0,0,0,0,0,33,107,9.791,9.372,0,0,0,3.767e4,5317.927,58.297,0.129,NaN,254.309,NaN,0.071,5.379e6,2867.945,3.921,0.553,0.649,0.419,0.014,0.121,NaN,NaN,NaN,NaN,NaN,NaN,NaN,NaN,0.003,16.129,204.317,90,0,4.013,30.1,848.021,349.54,0.01,0.038
0.42,4.907,24.981,66.446,24.981,66.446,0,0,0,0,0,0,33,107,9.791,9.013,0,0,0,3.766e4,5303.909,58.277,0.129,NaN,254.265,NaN,0.072,5.52e6,2875.224,4.095,0.553,0.643,0.418,0.014,0.121,NaN,NaN,NaN,NaN,NaN,NaN,NaN,NaN,0.003,16.129,204.317,90,0,3.963,30.1,848.017,349.539,0.01,0.039
0.43,5.16,25.647,66.663,25.647,66.663,0,0,0,0,0,0,33,107,9.791,8.672,0,0,0,3.765e4,5289.784,58.256,0.129,NaN,254.221,NaN,0.074,5.662e6,2882.465,4.274,0.553,0.638,0.418,0.014,0.121,NaN,NaN,NaN,NaN,NaN,NaN,NaN,NaN,0.003,16.129,204.317,90,0,3.912,30.099,848.012,349.539,0.01,0.039
0.44,5.419,26.316,66.878,26.316,66.878,0,0,0,0,0,0,33,107,9.791,8.346,0,0,0,3.763e4,5275.66,58.236,0.129,NaN,254.177,NaN,0.076,5.805e6,2889.667,4.457,0.552,0.633,0.418,0.014,0.121,NaN,NaN,NaN,NaN,NaN,NaN,NaN,NaN,0.003,16.129,204.317,90,0,3.861,30.099,848.007,349.539,0.01,0.04
0.45,5.686,26.987,67.093,26.987,67.093,0,0,0,0,0,0,33,107,9.791,8.036,0,0,0,3.762e4,5261.536,58.216,0.129,NaN,254.133,NaN,0.078,5.948e6,2896.869,4.646,0.552,0.628,0.418,0.014,0.121,NaN,NaN,NaN,NaN,NaN,NaN,NaN,NaN,0.003,16.129,204.317,90,0,3.81,30.098,848.002,349.538,0.01,0.041
0.46,5.959,27.659,67.307,27.659,67.307,0,0,0,0,0,0,33,107,9.791,7.841,0,0,0,3.76e4,5247.307,58.195,0.129,NaN,254.088,NaN,0.08,6.093e6,2904.032,4.852,0.552,0.625,0.418,0.014,0.121,NaN,NaN,NaN,NaN,NaN,NaN,NaN,NaN,0.003,16.129,204.317,90,0,3.809,30.098,847.997,349.538,0.01,0.041
0.47,6.239,28.335,67.52,28.335,67.52,0,0,0,0,0,0,33,107,9.791,7.655,0,0,0,3.759e4,5233.077,58.175,0.129,NaN,254.043,NaN,0.082,6.239e6,2911.154,5.064,0.552,0.623,0.418,0.014,0.121,NaN,NaN,NaN,NaN,NaN,NaN,NaN,NaN,0.003,16.129,204.317,90,0,3.808,30.097,847.991,349.538,0.01,0.042
0.48,6.526,29.012,67.733,29.012,67.733,0,0,0,0,0,0,33,107,9.791,7.477,0,0,0,3.758e4,5218.848,58.154,0.129,NaN,253.999,NaN,0.084,6.386e6,2918.277,5.282,0.552,0.62,0.417,0.014,0.121,NaN,NaN,NaN,NaN,NaN,NaN,NaN,NaN,0.004,16.129,204.317,90,0,3.808,30.097,847.986,349.538,0.01,0.043
0.49,6.819,29.691,67.945,29.691,67.945,0,0,0,0,0,0,33,107,9.791,7.306,0,0,0,3.756e4,5204.515,58.133,0.129,NaN,253.954,NaN,0.086,6.533e6,2925.359,5.505,0.552,0.617,0.417,0.014,0.121,NaN,NaN,NaN,NaN,NaN,NaN,NaN,NaN,0.004,16.129,204.317,90,0,3.807,30.096,847.98,349.537,0.01,0.043
0.5,7.12,30.373,68.156,30.373,68.156,0,0,0,0,0,0,33,107,9.791,7.143,0,0,0,3.755e4,5190.182,58.113,0.129,NaN,253.909,NaN,0.088,6.68e6,2932.401,5.733,0.552,0.615,0.417,0.014,0.121,NaN,NaN,NaN,NaN,NaN,NaN,NaN,NaN,0.004,16.129,204.317,90,0,3.806,30.096,847.975,349.537,0.01,0.046
0.51,7.427,31.056,68.368,31.056,68.368,0,0,0,0,0,0,33,107,9.791,6.978,0,0,0,3.753e4,5175.849,58.092,0.128,NaN,253.863,NaN,0.09,6.828e6,2939.442,5.966,0.552,0.612,0.417,0.014,0.121,NaN,NaN,NaN,NaN,NaN,NaN,NaN,NaN,0.004,16.129,204.317,90,0,3.801,30.095,847.969,349.537,0.01,0.047
0.52,7.741,31.742,68.578,31.742,68.578,0,0,0,0,0,0,33,107,9.791,6.819,0,0,0,3.752e4,5161.413,58.071,0.128,NaN,253.818,NaN,0.091,6.977e6,2946.442,6.204,0.552,0.61,0.417,0.014,0.121,NaN,NaN,NaN,NaN,NaN,NaN,NaN,NaN,0.004,16.129,204.317,90,0,3.796,30.095,847.963,349.536,0.01,0.047
0.53,8.062,32.43,68.787,32.43,68.787,0,0,0,0,0,0,33,107,9.791,6.667,0,0,0,3.75e4,5146.977,58.05,0.128,NaN,253.772,NaN,0.093,7.126e6,2953.4,6.448,0.551,0.608,0.417,0.014,0.121,NaN,NaN,NaN,NaN,NaN,NaN,NaN,NaN,0.004,16.129,204.317,90,0,3.79,30.094,847.957,349.536,0.01,0.048
0.54,8.389,33.119,68.996,33.119,68.996,0,0,0,0,0,0,33,107,9.791,6.52,0,0,0,3.749e4,5132.542,58.029,0.128,NaN,253.727,NaN,0.095,7.275e6,2960.358,6.698,0.551,0.606,0.416,0.014,0.121,NaN,NaN,NaN,NaN,NaN,NaN,NaN,NaN,0.004,16.129,204.317,90,0,3.785,30.093,847.95,349.535,0.01,0.049
0.55,8.724,33.811,69.205,33.811,69.205,0,0,0,0,0,0,33,107,9.791,6.379,0,0,0,3.747e4,5118.004,58.008,0.128,NaN,253.681,NaN,0.097,7.425e6,2967.273,6.953,0.551,0.604,0.416,0.014,0.121,NaN,NaN,NaN,NaN,NaN,NaN,NaN,NaN,0.004,16.129,204.317,90,0,3.78,30.093,847.944,349.535,0.01,0.049
0.56,9.066,34.505,69.412,34.505,69.412,0,0,0,0,0,0,33,107,9.791,6.237,0,0,0,3.746e4,5103.467,57.987,0.128,NaN,253.635,NaN,0.099,7.575e6,2974.146,7.213,0.551,0.602,0.416,0.014,0.121,NaN,NaN,NaN,NaN,NaN,NaN,NaN,NaN,0.004,16.129,204.317,90,0,3.771,30.092,847.938,349.535,0.01,0.05
0.57,9.414,35.201,69.619,35.201,69.619,0,0,0,0,0,0,33,107,9.791,6.1,0,0,0,3.745e4,5088.93,57.966,0.128,NaN,253.589,NaN,0.101,7.726e6,2981.018,7.479,0.551,0.6,0.416,0.014,0.121,NaN,NaN,NaN,NaN,NaN,NaN,NaN,NaN,0.004,16.129,204.317,90,0,3.762,30.092,847.931,349.534,0.01,0.05
0.58,9.77,35.9,69.825,35.9,69.825,0,0,0,0,0,0,33,107,9.791,5.968,0,0,0,3.743e4,5074.293,57.945,0.128,NaN,253.543,NaN,0.103,7.877e6,2987.847,7.751,0.551,0.598,0.416,0.014,0.121,NaN,NaN,NaN,NaN,NaN,NaN,NaN,NaN,0.004,16.129,204.317,90,0,3.753,30.091,847.924,349.534,0.01,0.051
0.59,10.132,36.6,70.03,36.6,70.03,0,0,0,0,0,0,33,107,9.791,5.84,0,0,0,3.742e4,5059.656,57.924,0.128,NaN,253.496,NaN,0.105,8.029e6,2994.632,8.029,0.551,0.596,0.416,0.014,0.121,NaN,NaN,NaN,NaN,NaN,NaN,NaN,NaN,0.004,16.129,204.317,90,0,3.744,30.09,847.917,349.534,0.01,0.051
0.6,10.502,37.302,70.235,37.302,70.235,0,0,0,0,0,0,33,107,9.791,5.717,0,0,0,3.74e4,5045.018,57.902,0.128,NaN,253.45,NaN,0.107,8.181e6,3001.417,8.312,0.551,0.594,0.415,0.014,0.121,NaN,NaN,NaN,NaN,NaN,NaN,NaN,NaN,0.005,16.129,204.317,90,0,3.735,30.09,847.91,349.533,0.01,0.052
0.615,11.069,38.359,70.496,38.359,70.497,-5.297e-5,0,5.297e-5,-180,0.007,0.479,33,107,9.791,5.593,0,2.294e-4,-2.208e-8,3.738e4,5022.914,57.87,0.128,285.333,253.38,1.981,0.11,8.411e6,3009.83,8.761,0.551,0.593,0.415,0.014,0.122,1.202,2.38,1.205e-4,0,0,0,0,2.681e-5,0.005,16.129,204.317,89.999,-8.548e-4,3.764,30.089,847.899,349.533,0.015,0.052
0.638,11.95,39.953,70.884,39.953,70.886,-3.352e-4,0,3.352e-4,-180,0.018,0.494,33,107,9.791,5.414,0,5.914e-4,-4.844e-8,3.735e4,4989.685,57.822,0.128,285.86,253.274,2.02,0.115,8.758e6,3022.372,9.46,0.551,0.59,0.415,0.014,0.122,1.153,2.329,-7.188e-5,0,0,0,0,1.644e-4,0.005,16.129,204.317,89.996,5.767e-4,3.808,30.087,847.883,349.532,0.023,0.053
0.671,13.339,42.363,71.462,42.363,71.464,-0.001,0,0.001,-180,0.035,0.503,33,107,9.791,5.121,0,0.001,-1.359e-7,3.73e4,4939.513,57.748,0.128,286.75,253.115,2.085,0.122,9.282e6,3040.972,10.557,0.55,0.586,0.414,0.014,0.122,1.075,2.241,1.681e-4,0,0,0,0,5.775e-4,0.005,16.129,204.317,89.985,0.002,3.842,30.084,847.856,349.53,0.034,0.053
0.721,15.548,45.974,72.312,45.974,72.314,-0.004,-1.004e-8,0.004,-180,0.06,0.468,33,107,9.791,4.534,0,0.002,-1.836e-7,3.722e4,4864.557,57.638,0.128,288.609,252.875,2.216,0.132,1.006e7,3068.208,12.262,0.55,0.579,0.414,0.014,0.122,0.924,2.046,-4.024e-4,0,0,0,0,0.002,0.006,16.129,204.317,89.956,0.002,3.741,30.08,847.814,349.528,0.05,0.053
0.771,17.938,49.636,73.287,49.636,73.288,-0.007,-2.344e-8,0.007,-180,0.081,0.379,33,107,9.791,3.864,0,0.003,-2.24e-7,3.715e4,4788.772,57.527,0.128,290.878,252.632,2.371,0.142,1.086e7,3100.01,14.087,0.55,0.572,0.413,0.014,0.123,0.761,1.802,1.134e-4,0,0,0,0,0.003,0.006,16.129,204.317,89.909,0.002,3.512,30.076,847.768,349.525,0.05,0.054
0.821,20.512,53.345,74.238,53.345,74.238,-0.012,-4.058e-8,0.012,-180,0.098,0.322,33,107,9.791,3.64,0,0.004,-3.018e-7,3.707e4,4712.25,57.414,0.128,291.68,252.385,2.436,0.153,1.167e7,3130.989,16.2,0.55,0.57,0.413,0.014,0.123,0.708,1.721,-1.907e-4,0,0,0,0,0.004,0.007,16.129,204.317,89.844,0.002,3.636,30.071,847.719,349.522,0.05,0.054
0.871,23.273,57.1,75.166,57.1,75.166,-0.017,-5.349e-8,0.017,-180,0.113,0.23,33,107,9.791,3.42,0,0.005,-4.932e-7,3.699e4,4635.021,57.299,0.128,292.489,252.136,2.502,0.164,1.248e7,3161.107,18.487,0.55,0.568,0.412,0.015,0.123,0.658,1.639,4.3e-4,0,0,0,0,0.007,0.007,16.129,204.317,89.76,0.002,3.766,30.066,847.667,349.519,0.05,0.055
0.921,26.223,60.901,76.072,60.901,76.072,-0.023,-4.633e-8,0.023,-180,0.119,0.079,33,107,9.791,3.108,0,0.006,-3.639e-7,3.691e4,4557.031,57.183,0.128,293.665,251.882,2.591,0.175,1.331e7,3190.344,20.92,0.55,0.565,0.412,0.015,0.124,0.588,1.514,4.906e-4,0,0,0,0,0.008,0.007,16.129,204.317,89.654,0.003,3.794,30.061,847.611,349.516,0.05,0.055
0.971,29.365,64.746,76.951,64.746,76.951,-0.029,9.527e-9,0.029,180,0.121,0.041,33,107,9.791,3.113,0,0.008,-8.834e-7,3.683e4,4478.367,57.065,0.128,293.659,251.626,2.606,0.186,1.415e7,3218.681,23.659,0.551,0.565,0.411,0.015,0.124,0.589,1.524,-4.182e-4,0,0,0,0,0.011,0.008,16.129,204.317,89.526,0.003,4.18,30.055,847.551,349.512,0.05,0.055
1.021,32.699,68.633,77.807,68.633,77.808,-0.035,1.556e-7,0.035,180,0.113,0.314,33,107,9.791,2.701,0,0.009,-9.26e-7,3.676e4,4399.059,56.946,0.128,295.275,251.366,2.722,0.197,1.5e7,3246.079,26.422,0.551,0.562,0.411,0.015,0.125,0.499,1.346,-3.699e-4,0,0,0,0,0.014,0.008,16.129,204.317,89.371,0.003,4.106,30.049,847.487,349.509,0.05,0.056
1.071,36.229,72.562,78.636,72.562,78.639,-0.04,4.389e-7,0.04,179.999,0.088,0.637,33,107,9.791,2.321,0,0.011,-1.915e-7,3.668e4,4319.062,56.825,0.128,296.837,251.103,2.836,0.208,1.585e7,3272.523,29.39,0.551,0.559,0.41,0.015,0.126,0.42,1.174,1.315e-4,0,0,0,0,0.016,0.009,16.129,204.317,89.192,0.003,4.055,30.043,847.42,349.505,0.05,0.056
1.121,39.956,76.531,79.436,76.531,79.442,-0.043,8.969e-7,0.043,179.999,0.048,0.986,33,107,9.791,2.05,0,0.012,-1.203e-7,3.659e4,4238.46,56.703,0.128,298,250.836,2.924,0.219,1.672e7,3297.994,32.604,0.551,0.558,0.41,0.016,0.126,0.365,1.049,-3.695e-4,0,0,0,0,0.019,0.009,16.129,204.317,88.987,0.003,4.144,30.036,847.349,349.501,0.05,0.057
1.171,43.883,80.539,80.206,80.539,80.218,-0.044,1.562e-6,0.044,179.998,0.013,1.432,33,107,9.791,1.655,0,0.013,1.906e-7,3.651e4,4157.283,56.58,0.127,299.756,250.567,3.05,0.231,1.759e7,3322.456,35.978,0.552,0.556,0.409,0.016,0.127,0.288,0.858,-3.862e-5,0,0,0,0,0.021,0.01,16.129,204.317,88.757,0.002,4.064,30.029,847.274,349.497,0.05,0.057
1.221,48.011,84.584,80.942,84.584,80.965,-0.042,2.447e-6,0.042,179.997,0.096,1.918,33,107,9.791,1.318,0,0.015,2.995e-7,3.643e4,4075.495,56.455,0.127,301.329,250.294,3.164,0.242,1.847e7,3345.895,39.597,0.552,0.555,0.409,0.016,0.128,0.225,0.688,2.352e-5,0,0,0,0,0.023,0.01,16.129,204.317,88.504,0.002,4.06,30.022,847.196,349.492,0.05,0.058
1.271,52.342,88.664,81.645,88.664,81.682,-0.034,3.544e-6,0.034,179.994,0.206,2.466,33,107,9.791,0.96,0,0.016,1.211e-7,3.635e4,3993.175,56.329,0.127,303.069,250.018,3.289,0.254,1.936e7,3368.297,43.439,0.553,0.554,0.408,0.016,0.128,0.16,0.504,1.084e-4,0,0,0,0,0.023,0.011,16.129,204.317,88.232,0.001,4.018,30.014,847.113,349.487,0.05,0.058
1.321,56.878,92.778,82.312,92.778,82.367,-0.02,4.825e-6,0.02,179.986,0.344,3.009,33,107,9.791,0.734,0,0.016,1.434e-7,3.627e4,3910.354,56.201,0.127,304.219,249.74,3.378,0.266,2.026e7,3389.625,47.563,0.553,0.554,0.408,0.017,0.129,0.121,0.384,4.915e-5,0,0,0,0,0.024,0.011,16.129,204.317,87.944,6.216e-4,4.176,30.006,847.027,349.482,0.05,0.058
1.371,61.621,96.923,82.943,96.924,83.02,7.569e-4,6.27e-6,7.569e-4,0.475,0.508,3.558,33,107,9.791,0.591,0,0.017,9.569e-7,3.618e4,3827.006,56.072,0.127,304.969,249.458,3.442,0.278,2.117e7,3409.871,51.951,0.554,0.555,0.407,0.017,0.13,0.096,0.308,-2.882e-4,0,0,0,0,0.024,0.012,16.129,204.317,87.641,3.241e-4,4.486,29.997,846.936,349.477,0.05,0.059
1.421,66.571,101.098,83.535,101.101,83.641,0.031,7.869e-6,0.031,0.015,0.703,4.206,33,107,9.791,0.302,0,0.018,1.026e-6,3.61e4,3743.202,55.942,0.127,306.509,249.173,3.555,0.29,2.208e7,3429.022,56.551,0.555,0.555,0.407,0.017,0.131,0.048,0.149,-4.027e-4,0,0,0,0,0.023,0.012,16.129,204.317,87.328,1.152e-4,4.55,29.988,846.842,349.472,0.05,0.059
1.471,71.731,105.301,84.085,105.305,84.228,0.072,9.611e-6,0.072,0.008,0.931,4.911,33,107,9.791,0.037,0,-0.018,8.117e-6,3.602e4,3658.975,55.81,0.127,307.979,248.886,3.664,0.302,2.299e7,3447.044,61.412,0.556,0.556,0.406,0.018,0.132,0.006,0.043,-4.254e-4,0,0,0,0,-0.022,0.013,16.129,204.317,87.008,-2.128e-5,4.505,29.979,846.744,349.466,0.05,0.06
1.521,77.102,109.53,84.592,109.537,84.781,0.125,1.152e-5,0.125,0.005,1.196,5.659,33,107,9.791,0.4,0,-0.017,4.601e-7,3.593e4,3574.307,55.677,0.127,306.029,248.596,3.561,0.314,2.392e7,3463.93,66.564,0.556,0.557,0.406,0.018,0.133,0.065,0.248,1.341e-5,0,0,0,0,-0.019,0.013,16.129,204.317,86.69,-7.705e-5,4.369,29.969,846.641,349.46,0.05,0.061
1.571,82.685,113.782,85.06,113.792,85.298,0.192,1.361e-5,0.192,0.004,1.498,6.369,33,107,9.791,0.661,0,-0.016,1.617e-6,3.585e4,3489.266,55.543,0.127,304.693,248.303,3.496,0.326,2.484e7,3479.672,72.008,0.557,0.558,0.405,0.019,0.134,0.108,0.394,-1.624e-4,0,0,0,0,-0.016,0.014,16.129,204.317,86.385,-2.979e-5,4.372,29.959,846.535,349.454,0.05,0.062
1.621,88.481,118.056,85.488,118.07,85.778,0.275,1.597e-5,0.275,0.003,1.834,7.05,33,107,9.791,0.881,0,-0.015,8.545e-7,3.576e4,3403.883,55.408,0.127,303.609,248.007,3.447,0.338,2.578e7,3494.239,77.732,0.558,0.56,0.405,0.019,0.135,0.146,0.517,2.668e-4,0,0,0,0,-0.012,0.014,16.129,204.317,86.1,2.137e-4,4.392,29.948,846.425,349.448,0.05,0.063
1.671,94.491,122.35,85.876,122.369,86.221,0.376,1.873e-5,0.376,0.003,2.204,7.71,33,107,9.791,1.102,0,-0.013,8.985e-7,3.567e4,3318.15,55.271,0.127,302.55,247.709,3.4,0.351,2.671e7,3507.627,83.744,0.559,0.561,0.404,0.019,0.136,0.186,0.64,2.677e-4,0,0,0,0,-0.009,0.015,16.129,204.317,85.846,4.789e-4,4.319,29.938,846.31,349.441,0.05,0.064
1.721,100.716,126.661,86.232,126.688,86.627,0.496,2.209e-5,0.496,0.003,2.604,8.259,33,107,9.791,1.228,0,-0.011,1.639e-6,3.559e4,3232.128,55.134,0.127,301.967,247.409,3.383,0.363,2.765e7,3519.831,89.998,0.56,0.563,0.403,0.02,0.137,0.209,0.712,-1.704e-5,0,0,0,0,-0.005,0.015,16.129,204.317,85.632,6.37e-4,4.342,29.917,846.097,349.429,0.05,0.065
1.771,107.157,130.988,86.558,131.023,86.994,0.637,2.619e-5,0.637,0.002,3.029,8.693,33,107,9.791,1.294,0,-0.008,2.34e-6,3.55e4,3145.847,54.995,0.126,301.682,247.106,3.384,0.376,2.859e7,3530.821,96.465,0.562,0.564,0.403,0.02,0.138,0.221,0.751,-3.415e-4,0,0,0,0,-0.003,0.016,16.129,204.317,85.465,9.032e-4,4.388,29.858,845.495,349.393,0.05,0.065
1.821,113.815,135.33,86.85,135.375,87.321,0.799,3.127e-5,0.799,0.002,3.473,9.059,33,107,9.791,1.376,0,-0.005,2.744e-7,3.542e4,3059.312,54.856,0.126,301.328,246.801,3.381,0.388,2.953e7,3540.599,103.202,0.563,0.566,0.402,0.021,0.14,0.236,0.799,-1.618e-4,0,0,0,0,-9.035e-4,0.017,16.129,204.317,85.352,0.001,4.264,29.798,844.873,349.356,0.05,0.066
1.871,120.691,139.685,87.109,139.741,87.608,0.984,3.758e-5,0.984,0.002,3.934,9.337,33,107,9.791,1.46,0,-0.001,1.05e-6,3.533e4,2972.573,54.715,0.126,300.964,246.493,3.377,0.401,3.046e7,3549.161,110.204,0.564,0.568,0.402,0.021,0.141,0.252,0.851,-1.552e-4,0,0,0,0,-4.171e-5,0.017,16.129,204.317,85.3,0.002,3.972,29.735,844.231,349.319,0.05,0.066
1.921,127.784,144.052,87.357,144.119,87.853,1.193,4.54e-5,1.193,0.002,4.404,9.319,33,107,9.791,1.369,0,0.003,2.938e-6,3.524e4,2885.662,54.573,0.126,301.417,246.183,3.425,0.413,3.141e7,3556.482,117.342,0.565,0.568,0.401,0.022,0.142,0.235,0.805,-1.816e-4,0,0,0,0,3.372e-4,0.018,16.129,204.317,85.318,0.002,3.931,29.671,843.568,349.279,0.05,0.066
1.971,135.096,148.43,87.59,148.51,88.054,1.424,5.503e-5,1.424,0.002,4.863,9.032,33,107,9.791,1.154,0,0.007,1.276e-6,3.515e4,2798.592,54.431,0.126,302.471,245.872,3.509,0.426,3.235e7,3562.567,124.657,0.567,0.569,0.401,0.023,0.144,0.196,0.685,-1.7e-4,0,0,0,0,0.001,0.018,16.129,204.317,85.405,0.003,4.065,29.604,842.885,349.239,0.05,0.067
2.021,142.627,152.818,87.789,152.91,88.213,1.679,6.687e-5,1.679,0.002,5.306,8.633,33,107,9.791,0.961,5.216e-9,0.01,5.181e-6,3.507e4,2711.408,54.287,0.126,303.444,245.558,3.589,0.438,3.33e7,3567.416,132.249,0.568,0.57,0.4,0.023,0.145,0.161,0.574,-1.59e-4,0,0,0,0,0.003,0.019,16.129,204.317,85.556,0.003,3.995,29.536,842.181,349.198,0.05,0.067
2.071,150.378,157.214,87.966,157.318,88.327,1.955,8.121e-5,1.955,0.002,5.722,7.976,33,107,9.791,0.65,0,0.013,4.942e-6,3.498e4,2624.139,54.143,0.126,305.041,245.242,3.708,0.451,3.424e7,3571.006,140.079,0.57,0.57,0.399,0.024,0.146,0.107,0.391,-4.726e-4,0,0,0,0,0.005,0.019,16.129,204.317,85.764,0.004,4.134,29.465,841.457,349.155,0.05,0.068
2.121,158.349,161.618,88.105,161.733,88.397,2.25,9.842e-5,2.25,0.003,6.101,7.17,33,107,9.791,0.301,0,0.015,9.689e-6,3.489e4,2536.809,53.998,0.126,306.908,244.925,3.843,0.464,3.519e7,3573.346,148.239,0.571,0.571,0.399,0.024,0.148,0.048,0.18,2.394e-4,0,0,0,0,0.006,0.02,16.129,204.317,86.011,0.005,4.319,29.393,840.712,349.111,0.05,0.069
2.171,166.54,166.026,88.194,166.151,88.423,2.564,1.188e-4,2.564,0.003,6.438,6.361,33,107,9.791,0.004,0,0.015,5.716e-4,3.481e4,2449.454,53.852,0.126,308.633,244.606,3.97,0.477,3.613e7,3574.44,156.752,0.573,0.573,0.398,0.025,0.15,6.732e-4,-0.004,-3.861e-4,0,0,0,0,0.006,0.02,16.129,204.317,86.279,0.005,4.354,29.318,839.947,349.066,0.05,0.07
2.221,174.952,170.437,88.228,170.57,88.406,2.894,1.424e-4,2.894,0.003,6.738,5.622,33,107,9.791,0.208,0,-0.015,9.221e-6,3.472e4,2362.101,53.706,0.126,307.481,244.285,3.918,0.489,3.707e7,3574.268,165.573,0.575,0.575,0.398,0.026,0.151,0.033,0.136,-3.882e-4,0,0,0,0,-0.005,0.021,16.129,204.317,86.546,0.005,4.178,29.242,839.161,349.019,0.05,0.071
2.271,183.584,174.847,88.208,174.987,88.347,3.237,1.692e-4,3.237,0.003,7.001,4.941,33,107,9.791,0.372,0,-0.013,6.881e-6,3.463e4,2274.786,53.559,0.126,306.64,243.963,3.886,0.502,3.801e7,3572.841,174.686,0.576,0.577,0.397,0.027,0.153,0.06,0.238,-2.416e-6,0,0,0,0,-0.004,0.021,16.129,204.317,86.795,0.006,3.932,29.163,838.355,348.972,0.05,0.071
2.321,192.436,179.253,88.138,179.399,88.243,3.593,1.991e-4,3.593,0.003,7.232,4.305,33,107,9.791,0.52,0,-0.011,1.782e-6,3.454e4,2187.536,53.411,0.126,305.899,243.64,3.86,0.515,3.895e7,3570.169,184.104,0.578,0.579,0.396,0.027,0.154,0.085,0.33,-4.676e-4,0,0,0,0,-0.003,0.022,16.129,204.317,87.014,0.006,3.752,29.083,837.528,348.923,0.05,0.072
2.371,201.509,183.654,88.015,183.805,88.095,3.96,2.322e-4,3.96,0.003,7.432,3.767,33,107,9.791,0.638,0,-0.008,3.531e-6,3.446e4,2100.376,53.263,0.125,305.332,243.315,3.845,0.527,3.988e7,3566.235,193.808,0.58,0.581,0.396,0.028,0.156,0.105,0.405,3.986e-4,0,0,0,0,-0.001,0.022,16.129,204.317,87.188,0.006,3.645,29,836.68,348.873,0.05,0.072
2.421,210.801,188.047,87.838,188.201,87.903,4.336,2.682e-4,4.336,0.004,7.611,3.371,33,107,9.791,0.716,0,-0.005,-1.137e-6,3.437e4,2013.352,53.114,0.125,304.976,242.989,3.843,0.54,4.081e7,3561.053,203.778,0.582,0.583,0.395,0.029,0.158,0.118,0.455,-3.734e-4,0,0,0,0,-4.728e-4,0.023,16.129,204.317,87.303,0.006,3.604,28.916,835.812,348.822,0.05,0.073
2.471,220.313,192.429,87.609,192.585,87.666,4.721,3.071e-4,4.721,0.004,7.771,3.149,33,107,9.791,0.756,0,-4.208e-4,-1.647e-6,3.428e4,1926.482,52.965,0.125,304.819,242.662,3.854,0.553,4.174e7,3554.636,214.007,0.584,0.585,0.394,0.03,0.16,0.125,0.484,-4.571e-4,0,0,0,0,-3.607e-6,0.024,16.129,204.317,87.349,0.007,3.689,28.829,834.923,348.769,0.05,0.073
2.521,230.044,196.796,87.324,196.956,87.385,5.113,3.492e-4,5.113,0.004,7.931,3.261,33,107,9.791,0.683,0,0.004,3.204e-7,3.42e4,1839.79,52.815,0.125,305.236,242.334,3.9,0.565,4.266e7,3546.971,224.376,0.586,0.587,0.394,0.031,0.162,0.113,0.44,-4.911e-4,0,0,0,0,2.65e-4,0.024,16.129,204.317,87.319,0.007,3.636,28.74,834.014,348.716,0.05,0.074
2.571,239.993,201.148,86.985,201.311,87.058,5.514,3.947e-4,5.514,0.004,8.1,3.566,33,107,9.791,0.58,5.158e-9,0.008,1.301e-6,3.411e4,1753.33,52.665,0.125,305.817,242.005,3.956,0.578,4.358e7,3538.076,235.001,0.589,0.589,0.393,0.032,0.163,0.095,0.375,4.698e-4,0,0,0,0,0.001,0.025,16.129,204.317,87.216,0.007,3.722,28.65,833.084,348.661,0.05,0.074
2.621,250.158,205.48,86.588,205.647,86.688,5.923,4.436e-4,5.923,0.004,8.291,4.164,33,107,9.791,0.393,9.192e-9,0.011,-7.907e-7,3.402e4,1667.112,52.514,0.125,306.85,241.676,4.041,0.59,4.449e7,3527.966,245.825,0.591,0.591,0.392,0.033,0.165,0.064,0.256,8.431e-5,0,0,0,0,0.002,0.025,16.129,204.317,87.048,0.007,3.716,28.557,832.134,348.605,0.05,0.075
2.671,260.54,209.789,86.13,209.962,86.272,6.344,4.961e-4,6.344,0.004,8.52,4.95,33,107,9.791,0.16,-5.968e-9,0.013,-1.515e-5,3.394e4,1581.159,52.364,0.125,308.159,241.345,4.142,0.603,4.539e7,3516.633,256.926,0.593,0.593,0.392,0.034,0.167,0.026,0.103,4.524e-4,0,0,0,0,0.003,0.026,16.129,204.317,86.834,0.007,3.664,28.463,831.164,348.547,0.05,0.076
2.721,271.137,214.074,85.618,214.254,85.812,6.776,5.527e-4,6.776,0.005,8.787,5.762,33,107,9.791,0.058,-1.036e-8,-0.013,-2.183e-5,3.385e4,1495.531,52.213,0.125,308.778,241.015,4.201,0.615,4.629e7,3504.097,268.37,0.596,0.596,0.391,0.035,0.169,0.009,0.042,-2.867e-4,0,0,0,0,-0.003,0.026,16.129,204.317,86.6,0.008,3.704,28.367,830.174,348.489,0.05,0.077
2.771,281.947,218.331,85.053,218.52,85.306,7.223,6.136e-4,7.223,0.005,9.095,6.565,33,107,9.791,0.263,-5.8e-9,-0.012,-6.871e-6,3.377e4,1410.232,52.062,0.125,307.717,240.684,4.156,0.628,4.718e7,3490.377,280.129,0.598,0.598,0.39,0.037,0.171,0.042,0.178,3.122e-5,0,0,0,0,-0.002,0.027,16.129,204.317,86.375,0.007,3.719,28.268,829.164,348.429,0.05,0.077
2.821,292.969,222.557,84.45,222.757,84.754,7.686,6.786e-4,7.686,0.005,9.44,7.172,33,107,9.79,0.392,0,-0.009,-1.727e-6,3.368e4,1325.282,51.911,0.125,307.082,240.352,4.137,0.64,4.807e7,3475.468,292.171,0.601,0.601,0.39,0.038,0.173,0.064,0.266,-2.606e-4,0,0,0,0,-0.001,0.027,16.129,204.317,86.188,0.006,3.852,28.168,828.135,348.369,0.05,0.078
2.871,304.202,226.752,83.821,226.964,84.152,8.167,7.474e-4,8.167,0.005,9.807,7.461,33,107,9.79,0.423,-1.116e-8,-0.005,4.649e-6,3.36e4,1240.75,51.76,0.125,306.98,240.021,4.151,0.652,4.895e7,3459.394,304.429,0.603,0.604,0.389,0.039,0.175,0.069,0.287,-3.383e-4,0,0,0,0,-4.425e-4,0.028,16.129,204.317,86.057,0.006,4.134,28.066,827.085,348.307,0.05,0.079
2.921,315.643,230.914,83.163,231.138,83.504,8.667,8.198e-4,8.667,0.005,10.181,7.542,33,107,9.79,0.413,0,-0.002,-2.975e-6,3.351e4,1156.629,51.609,0.125,307.098,239.69,4.179,0.664,4.982e7,3442.177,316.875,0.606,0.606,0.388,0.04,0.177,0.067,0.282,-1.19e-4,0,0,0,0,-6.09e-5,0.028,16.129,204.317,85.99,0.005,4.336,27.962,826.016,348.244,0.05,0.079
2.971,327.292,235.041,82.474,235.278,82.81,9.185,8.959e-4,9.185,0.006,10.557,7.459,33,107,9.79,0.385,-5.21e-9,0.002,-1.568e-6,3.343e4,1072.939,51.457,0.124,307.312,239.358,4.213,0.676,5.067e7,3423.814,329.495,0.609,0.609,0.387,0.042,0.179,0.063,0.265,4.745e-4,0,0,0,0,4.142e-5,0.029,16.129,204.317,85.988,0.005,4.335,27.856,824.928,348.179,0.05,0.092
3.021,339.147,239.132,81.759,239.382,82.069,9.722,9.754e-4,9.722,0.006,10.92,7.132,33,107,9.79,0.307,0,0.005,-9.51e-8,3.335e4,989.754,51.307,0.124,307.796,239.027,4.264,0.688,5.152e7,3404.333,342.294,0.612,0.612,0.387,0.043,0.182,0.05,0.212,-1.474e-5,0,0,0,0,3.154e-4,0.029,16.129,204.317,86.05,0.005,4.306,27.748,823.82,348.114,0.05,0.093
3.071,351.203,243.111,79.512,243.372,79.774,10.277,0.001,10.277,0.006,11.259,6.464,33,107,9.79,0.181,-7.35e-9,0.008,-1.008e-5,3.327e4,910.326,51.162,0.124,308.552,238.71,4.33,0.7,5.234e7,3333.668,355.044,0.615,0.615,0.386,0.045,0.184,0.029,0.126,-3.51e-4,0,0,0,0,7.319e-4,0.03,16.129,204.317,86.165,0.004,4.269,27.638,822.694,348.048,0.05,0.093
3.121,363.42,245.559,48.901,245.826,49.044,10.845,0.001,10.845,0.006,11.462,3.741,33,107,9.79,0.005,-5.365e-9,-0.008,-1.274e-4,3.321e4,851.663,51.054,0.124,309.592,238.474,4.409,0.707,5.283e7,2316.045,362.955,0.616,0.616,0.386,0.046,0.185,8.684e-4,0.004,-3.536e-4,0,0,0,0,-8.668e-4,0.03,16.129,204.317,86.311,0.005,4.406,27.527,821.552,347.98,0.05,0.094
3.171,375.753,247.774,44.248,248.046,44.34,11.422,0.001,11.422,0.006,11.618,2.866,33,107,9.79,0.156,-1.131e-8,-0.007,-4.16e-7,3.316e4,798.776,50.957,0.124,308.776,238.261,4.372,0.714,5.327e7,2164.4,370.217,0.618,0.618,0.385,0.047,0.186,0.025,0.11,-9.964e-5,0,0,0,0,-6.713e-4,0.03,16.129,204.317,86.456,0.006,4.418,27.415,820.4,347.912,0.05,0.095
3.221,388.196,249.965,43.769,250.241,43.834,12.007,0.001,12.007,0.006,11.749,2.388,33,107,9.79,0.266,0,-0.005,1.496e-6,3.31e4,746.183,50.861,0.124,308.218,238.049,4.351,0.72,5.37e7,2152.1,377.512,0.62,0.62,0.385,0.048,0.187,0.043,0.187,1.868e-4,0,0,0,0,-3.242e-4,0.031,16.129,204.317,86.57,0.006,4.404,27.302,819.237,347.844,0.05,0.095
3.271,400.749,252.131,43.263,252.41,43.31,12.597,0.001,12.597,0.006,11.858,2.03,33,107,9.79,0.347,-5.514e-9,-0.002,5.431e-7,3.305e4,693.89,50.764,0.124,307.819,237.837,4.339,0.727,5.413e7,2139.276,384.849,0.622,0.622,0.384,0.049,0.189,0.057,0.246,-4.201e-4,0,0,0,0,-3.83e-5,0.031,16.129,204.317,86.634,0.007,4.516,27.187,818.065,347.774,0.05,0.096
3.321,413.409,254.271,42.726,254.552,42.769,13.192,0.002,13.192,0.007,11.954,1.916,33,107,9.79,0.369,0,0.002,-7.537e-6,3.3e4,641.944,50.668,0.124,307.748,237.625,4.348,0.733,5.455e7,2125.939,392.16,0.623,0.624,0.384,0.05,0.19,0.06,0.261,-4.991e-4,0,0,0,0,6.297e-5,0.031,16.129,204.317,86.628,0.009,4.675,27.072,816.882,347.705,0.05,0.097
3.371,426.175,256.383,42.153,256.666,42.211,13.792,0.002,13.792,0.007,12.054,2.211,33,107,9.79,0.282,-1.141e-8,0.006,-1.289e-5,3.295e4,590.328,50.572,0.124,308.252,237.415,4.392,0.739,5.496e7,2112.102,399.348,0.625,0.625,0.383,0.051,0.191,0.046,0.201,-1.114e-4,0,0,0,0,4.509e-4,0.031,16.129,204.317,86.549,0.01,4.677,26.956,815.689,347.634,0.05,0.098
3.421,439.047,258.464,41.544,258.751,41.64,14.398,0.002,14.398,0.007,12.179,2.829,33,107,9.79,0.112,0,0.008,-1.489e-5,3.29e4,539.048,50.476,0.124,309.223,237.205,4.465,0.745,5.536e7,2097.766,406.476,0.627,0.627,0.383,0.052,0.192,0.018,0.079,2.637e-4,0,0,0,0,8.124e-4,0.032,16.129,204.317,86.413,0.011,4.521,26.839,814.486,347.563,0.05,0.099
3.471,452.021,260.514,40.91,260.806,41.059,15.011,0.002,15.011,0.007,12.337,3.496,33,107,9.79,0.066,-1.585e-8,-0.009,-1.404e-5,3.284e4,488.153,50.381,0.124,309.529,236.996,4.497,0.751,5.575e7,2082.945,413.674,0.629,0.629,0.383,0.053,0.193,0.011,0.048,-2.963e-4,0,0,0,0,-8.499e-4,0.032,16.129,204.317,86.253,0.01,4.408,26.721,813.274,347.492,0.05,0.099
3.521,465.097,262.532,40.26,262.83,40.465,15.632,0.002,15.632,0.007,12.527,4.071,33,107,9.79,0.213,1.141e-8,-0.007,-1.324e-5,3.279e4,437.624,50.286,0.124,308.76,236.788,4.462,0.757,5.614e7,2067.651,420.927,0.631,0.631,0.382,0.054,0.195,0.034,0.154,8.015e-7,0,0,0,0,-5.305e-4,0.032,16.129,204.317,86.109,0.01,4.335,26.602,812.053,347.42,0.05,0.1
3.571,478.273,264.516,39.592,264.822,39.838,16.264,0.002,16.264,0.007,12.74,4.423,33,107,9.79,0.301,0,-0.004,-4.447e-6,3.274e4,387.743,50.192,0.124,308.323,236.582,4.448,0.763,5.652e7,2051.412,428.17,0.633,0.633,0.382,0.055,0.196,0.049,0.218,-4.81e-4,0,0,0,0,-1.489e-4,0.032,16.129,204.317,86.012,0.01,4.295,26.482,810.821,347.347,0.05,0.1
3.621,491.523,265.465,18.942,265.778,19.198,16.905,0.002,16.905,0.007,12.894,3.127,33,107,9.79,0.335,0,2.828e-4,5.866e-6,3.271e4,353.846,50.128,0.124,308.158,236.441,4.446,0.766,5.668e7,1376.227,431.428,0.634,0.634,0.382,0.056,0.196,0.055,0.243,-4.766e-4,0,0,0,0,8.555e-7,0.033,16.129,204.317,85.981,0.01,4.188,26.362,809.584,347.274,0.05,0.101
3.671,504.81,266.014,10.989,266.333,11.223,17.552,0.002,17.552,0.008,13.02,2.278,33,107,9.79,0.255,0,0.004,1.6e-6,3.268e4,326.577,50.077,0.124,308.605,236.328,4.481,0.768,5.675e7,1115.862,433.096,0.634,0.634,0.382,0.056,0.197,0.041,0.185,-1.726e-6,0,0,0,0,2.146e-4,0.033,16.129,204.317,86.026,0.011,4.264,26.241,808.342,347.201,0.05,0.101
3.721,518.124,266.552,10.75,266.874,10.884,18.206,0.002,18.206,0.008,13.116,1.703,33,107,9.79,0.102,0,0.006,1.933e-5,3.266e4,299.495,50.026,0.124,309.46,236.216,4.541,0.77,5.682e7,1107.827,434.736,0.635,0.635,0.381,0.056,0.197,0.016,0.074,2.254e-4,0,0,0,0,4.258e-4,0.033,16.129,204.317,86.128,0.012,4.465,26.12,807.098,347.127,0.05,0.102
3.771,531.465,267.077,10.496,267.402,10.572,18.864,0.003,18.864,0.008,13.19,1.267,33,107,9.79,0.009,9.445e-9,-0.007,1.095e-4,3.263e4,272.628,49.975,0.124,309.962,236.104,4.579,0.771,5.689e7,1099.613,436.304,0.635,0.635,0.381,0.057,0.197,0.001,0.007,-3.584e-4,0,0,0,0,-5.259e-4,0.033,16.129,204.317,86.253,0.012,4.353,25.998,805.852,347.054,0.05,0.102
3.821,544.831,267.588,10.233,267.916,10.269,19.525,0.003,19.525,0.008,13.242,0.864,33,107,9.79,0.109,6.089e-9,-0.006,6.352e-6,3.26e4,245.96,49.924,0.124,309.439,235.993,4.554,0.773,5.695e7,1091.224,437.847,0.636,0.636,0.381,0.057,0.198,0.018,0.08,-2.557e-4,0,0,0,0,-4.099e-4,0.033,16.129,204.317,86.375,0.011,4.236,25.877,804.603,346.98,0.05,0.102
3.871,558.223,268.087,9.958,268.415,9.974,20.188,0.003,20.188,0.008,13.276,0.561,33,107,9.79,0.182,6.198e-9,-0.004,3.675e-6,3.258e4,219.494,49.874,0.124,309.052,235.882,4.537,0.774,5.701e7,1082.662,439.348,0.636,0.636,0.381,0.057,0.198,0.029,0.133,6.581e-5,0,0,0,0,-1.964e-4,0.033,16.129,204.317,86.471,0.009,4.121,25.755,803.352,346.906,0.05,0.103
3.921,571.64,268.571,9.671,268.9,9.678,20.852,0.003,20.852,0.008,13.299,0.375,33,107,9.79,0.224,0,-0.002,6.75e-6,3.255e4,193.254,49.824,0.124,308.835,235.772,4.53,0.776,5.706e7,1073.931,440.804,0.637,0.637,0.381,0.058,0.198,0.036,0.165,4.852e-4,0,0,0,0,-2.945e-5,0.033,16.129,204.317,86.525,0.005,4.071,25.633,802.098,346.832,0.05,0.103
3.971,585.08,269.04,9.366,269.369,9.378,21.517,0.003,21.517,0.009,13.316,0.464,33,107,9.79,0.193,0,0.001,-3.784e-7,3.252e4,167.227,49.774,0.124,309.018,235.663,4.548,0.777,5.711e7,1065.036,442.138,0.637,0.637,0.381,0.058,0.199,0.031,0.142,3.972e-4,0,0,0,0,1.949e-5,0.033,16.129,204.317,86.527,0.004,3.926,25.51,800.842,346.758,0.05,0.104
4.021,598.543,269.493,9.047,269.824,9.077,22.184,0.003,22.184,0.009,13.347,0.737,33,107,9.79,0.112,0,0.003,-7.761e-6,3.25e4,141.412,49.725,0.124,309.474,235.555,4.583,0.779,5.716e7,1055.978,443.385,0.638,0.638,0.381,0.058,0.199,0.018,0.083,-4.917e-4,0,0,0,0,1.001e-4,0.033,16.129,204.317,86.484,0.006,3.73,25.388,799.584,346.684,0.05,0.104
4.071,612.029,269.931,8.727,270.262,8.775,22.852,0.004,22.852,0.009,13.389,0.921,33,107,9.79,0.06,6.306e-9,0.004,-1.071e-5,3.247e4,115.837,49.676,0.123,309.772,235.447,4.608,0.78,5.721e7,1046.764,444.688,0.638,0.638,0.381,0.058,0.199,0.01,0.044,2.784e-4,0,0,0,0,1.881e-4,0.033,16.129,204.317,86.415,0.01,3.801,25.265,798.373,346.61,0.05,0.104
4.121,625.536,270.352,8.398,270.685,8.478,23.523,0.004,23.523,0.009,13.44,1.161,33,107,9.789,0.008,0,-0.005,-1.32e-4,3.245e4,90.485,49.627,0.123,310.121,235.341,4.636,0.782,5.725e7,1037.396,445.934,0.639,0.639,0.381,0.059,0.199,0.001,0.006,2.794e-4,0,0,0,0,-2.345e-4,0.033,16.129,204.317,86.332,0.015,3.848,25.142,797.163,346.535,0.05,0.105
4.171,639.064,270.756,8.066,271.092,8.186,24.196,0.004,24.196,0.009,13.505,1.399,33,107,9.789,0.076,0,-0.004,-7.073e-6,3.242e4,65.356,49.579,0.123,309.713,235.235,4.618,0.783,5.729e7,1027.877,447.123,0.639,0.639,0.381,0.059,0.2,0.012,0.056,-1.203e-5,0,0,0,0,-1.66e-4,0.033,16.129,204.317,86.252,0.019,3.865,25.019,795.951,346.461,0.05,0.105
4.221,652.605,270.91,3.075,271.249,3.299,24.873,0.004,24.873,0.009,13.562,1.195,33,107,9.789,0.107,0,-0.003,-5.796e-6,3.24e4,45.733,49.541,0.123,309.548,235.152,4.613,0.784,5.728e7,865.943,447.335,0.64,0.64,0.381,0.059,0.2,0.017,0.079,-2.159e-4,0,0,0,0,-8.306e-5,0.033,16.129,204.317,86.189,0.022,3.974,24.896,794.738,346.386,0.05,0.106
4.23,654.975,270.743,-19,271.083,19.002,24.992,0.004,24.992,0.009,13.559,0.261,33,107,9.789,0.111,0,-0.003,-7.782e-6,3.24e4,43.557,49.537,0.123,309.518,235.143,4.611,0.783,5.724e7,148.384,446.596,0.639,0.639,0.381,0.059,0.2,0.018,0.082,1.735e-4,0,0,0,0,-6.706e-5,0.033,16.129,204.317,86.181,0.022,3.987,24.875,794.525,346.373,0.009,0.106
4.243,658.527,270.434,-23.529,270.774,23.536,25.17,0.004,25.17,0.009,13.552,0.551,33,107,9.789,0.116,0,-0.002,-5.914e-6,3.24e4,43.557,49.537,0.123,309.487,235.143,4.609,0.782,5.717e7,0,445.251,0.639,0.639,0.381,0.059,0.2,0.019,0.085,-4.955e-4,0,0,0,0,-4.781e-5,0.033,16.129,204.317,86.17,0.022,4.006,24.842,794.207,346.353,0.013,0.106
4.263,663.846,269.972,-23.47,270.311,23.476,25.436,0.004,25.436,0.009,13.541,0.507,33,107,9.789,0.129,0,-0.002,-2.967e-6,3.24e4,43.557,49.537,0.123,309.405,235.143,4.604,0.781,5.705e7,0,443.233,0.639,0.639,0.381,0.059,0.199,0.021,0.095,-3.021e-4,0,0,0,0,-2.391e-5,0.033,16.129,204.317,86.156,0.023,3.987,24.794,793.731,346.324,0.02,0.107
4.292,671.809,269.28,-23.381,269.619,23.385,25.836,0.004,25.836,0.009,13.528,0.444,33,107,9.789,0.147,0,-4.381e-4,-5.544e-6,3.24e4,43.557,49.537,0.123,309.291,235.143,4.597,0.779,5.688e7,0,440.222,0.638,0.638,0.381,0.058,0.199,0.024,0.108,-2.398e-4,0,0,0,0,-1.995e-6,0.033,16.129,204.317,86.146,0.023,3.92,24.721,793.017,346.28,0.03,0.107
4.337,683.714,268.247,-23.245,268.587,23.249,26.435,0.004,26.435,0.01,13.509,0.403,33,107,9.789,0.156,0,0.001,-9.248e-6,3.24e4,43.557,49.537,0.123,309.213,235.143,4.592,0.776,5.662e7,0,435.746,0.637,0.637,0.381,0.058,0.198,0.025,0.116,9.925e-5,0,0,0,0,1.89e-5,0.033,16.129,204.317,86.153,0.021,3.789,24.613,791.951,346.214,0.044,0.108
4.387,697.097,267.089,-23.084,267.429,23.089,27.11,0.005,27.11,0.01,13.487,0.513,33,107,9.789,0.12,0,0.003,-1.899e-5,3.24e4,43.557,49.537,0.123,309.39,235.143,4.603,0.773,5.633e7,0,430.77,0.636,0.636,0.381,0.057,0.198,0.019,0.089,-8.814e-5,0,0,0,0,1.084e-4,0.033,16.129,204.317,86.196,0.016,3.714,24.491,790.752,346.141,0.05,0.108
4.437,710.423,265.939,-22.915,266.279,22.928,27.783,0.005,27.783,0.01,13.455,0.784,33,107,9.789,0.032,0,0.004,-4.915e-5,3.24e4,43.557,49.537,0.123,309.84,235.143,4.631,0.77,5.604e7,0,425.9,0.635,0.635,0.382,0.056,0.197,0.005,0.023,1.634e-4,0,0,0,0,1.915e-4,0.033,16.129,204.317,86.265,0.011,3.765,24.37,789.558,346.067,0.05,0.109
4.487,723.691,264.797,-22.742,265.137,22.774,28.455,0.005,28.455,0.01,13.405,1.212,33,107,9.789,0.106,0,-0.004,-6.307e-6,3.24e4,43.557,49.537,0.123,309.422,235.143,4.605,0.767,5.577e7,0,421.192,0.634,0.634,0.382,0.056,0.196,0.017,0.079,-7.192e-5,0,0,0,0,-1.57e-4,0.032,16.129,204.317,86.34,0.005,4.036,24.249,788.369,345.994,0.05,0.109
4.537,736.903,263.664,-22.588,264.002,22.628,29.124,0.005,29.124,0.01,13.339,1.341,33,107,9.789,0.153,0,-0.002,-2.976e-6,3.24e4,43.557,49.537,0.123,309.142,235.143,4.588,0.764,5.548e7,0,416.483,0.633,0.633,0.382,0.055,0.196,0.025,0.113,1.103e-4,0,0,0,0,-4.032e-5,0.032,16.129,204.317,86.393,0.002,3.998,24.129,787.185,345.921,0.05,0.11
4.587,750.058,262.539,-22.44,262.874,22.486,29.789,0.005,29.789,0.01,13.27,1.429,33,107,9.789,0.185,0,5.655e-5,6.07e-7,3.24e4,43.557,49.537,0.123,308.941,235.143,4.575,0.761,5.52e7,0,411.869,0.632,0.632,0.382,0.055,0.195,0.03,0.137,-1.84e-4,0,0,0,0,3.497e-8,0.032,16.129,204.317,86.41,3.314e-4,4.056,24.009,786.007,345.849,0.05,0.11
4.637,763.157,261.42,-22.305,261.753,22.344,30.451,0.006,30.451,0.011,13.2,1.317,33,107,9.789,0.154,0,0.002,-3.121e-6,3.24e4,43.557,49.537,0.123,309.092,235.143,4.585,0.758,5.493e7,0,407.272,0.631,0.631,0.382,0.054,0.195,0.025,0.113,-1.064e-4,0,0,0,0,5.978e-5,0.032,16.129,204.317,86.387,0.002,4.011,23.89,784.833,345.776,0.05,0.111
4.687,776.2,260.308,-22.176,260.639,22.205,31.109,0.006,31.109,0.011,13.139,1.134,33,107,9.789,0.097,0,0.004,-2.597e-6,3.24e4,43.557,49.537,0.123,309.382,235.143,4.603,0.755,5.465e7,0,402.747,0.63,0.63,0.383,0.053,0.194,0.016,0.071,4.147e-4,0,0,0,0,1.615e-4,0.032,16.129,204.317,86.33,0.005,3.995,23.772,783.665,345.705,0.05,0.111
4.737,789.188,259.202,-22.048,259.533,22.071,31.765,0.006,31.765,0.011,13.086,0.999,33,107,9.789,0.052,0,0.005,-4.263e-6,3.24e4,43.557,49.537,0.123,309.606,235.143,4.617,0.752,5.438e7,0,398.336,0.629,0.629,0.383,0.053,0.193,0.008,0.039,1.131e-4,0,0,0,0,2.474e-4,0.032,16.129,204.317,86.252,0.011,4.129,23.654,782.501,345.633,0.05,0.112
4.787,802.12,258.103,-21.92,258.432,21.939,32.418,0.006,32.418,0.011,13.039,0.918,33,107,9.789,0.023,5.451e-9,0.005,-5.329e-5,3.24e4,43.557,49.537,0.123,309.728,235.143,4.624,0.749,5.411e7,0,394.023,0.628,0.628,0.383,0.052,0.193,0.004,0.017,5.235e-5,0,0,0,0,2.984e-4,0.032,16.129,204.317,86.162,0.015,4.379,23.536,781.343,345.562,0.05,0.112
4.837,814.998,257.01,-21.812,257.339,21.818,33.069,0.006,33.069,0.011,13.001,0.522,33,107,9.789,0.108,0,-0.005,-1.069e-5,3.24e4,43.557,49.537,0.123,309.254,235.143,4.595,0.746,5.384e7,0,389.678,0.627,0.627,0.383,0.052,0.192,0.017,0.081,4.112e-5,0,0,0,0,-2.685e-4,0.031,16.129,204.317,86.07,0.019,4.159,23.419,780.189,345.491,0.05,0.112
4.887,827.821,255.922,-21.699,256.251,21.7,33.718,0.007,33.718,0.011,12.983,0.275,33,107,9.789,0.191,0,-0.003,-9.093e-6,3.24e4,43.557,49.537,0.123,308.776,235.143,4.565,0.743,5.357e7,0,385.437,0.626,0.626,0.383,0.051,0.192,0.031,0.141,-4.339e-4,0,0,0,0,-9.206e-5,0.031,16.129,204.317,86,0.02,4.043,23.302,779.04,345.42,0.05,0.113
4.937,840.59,254.84,-21.579,255.17,21.579,34.367,0.007,34.367,0.011,12.973,0.145,33,107,9.789,0.235,0,-3.898e-4,-6.954e-6,3.24e4,43.557,49.537,0.123,308.517,235.143,4.549,0.74,5.33e7,0,381.249,0.626,0.626,0.384,0.051,0.191,0.038,0.173,2.615e-4,0,0,0,0,-1.763e-6,0.031,16.129,204.317,85.97,0.02,3.925,23.186,777.896,345.35,0.05,0.113
4.987,853.306,253.764,-21.451,254.096,21.451,35.016,0.007,35.016,0.011,12.967,0.132,33,107,9.789,0.237,0,0.002,-3.722e-6,3.24e4,43.557,49.537,0.123,308.484,235.143,4.547,0.737,5.303e7,0,377.092,0.625,0.625,0.384,0.05,0.191,0.038,0.175,1.855e-4,0,0,0,0,6.787e-5,0.031,16.129,204.317,85.99,0.019,3.767,23.07,776.757,345.279,0.05,0.113
5.037,865.967,252.695,-21.318,253.027,21.319,35.664,0.007,35.664,0.012,12.959,0.192,33,107,9.789,0.212,0,0.005,-1.163e-6,3.24e4,43.557,49.537,0.123,308.6,235.143,4.554,0.734,5.277e7,0,372.959,0.624,0.624,0.384,0.05,0.19,0.034,0.156,4.224e-4,0,0,0,0,2.917e-4,0.031,16.129,204.317,86.057,0.017,3.518,22.955,775.623,345.21,0.05,0.114
5.087,878.575,251.633,-21.172,251.966,21.177,36.311,0.007,36.311,0.012,12.943,0.469,33,107,9.789,0.11,-9.042e-9,0.007,-1.005e-5,3.24e4,43.557,49.537,0.123,309.136,235.143,4.588,0.731,5.25e7,0,368.898,0.623,0.623,0.384,0.049,0.189,0.018,0.08,-2.202e-4,0,0,0,0,5.718e-4,0.031,16.129,204.317,86.167,0.015,3.432,22.84,774.493,345.14,0.05,0.114
5.137,891.13,250.578,-21.027,250.91,21.042,36.958,0.008,36.958,0.012,12.911,0.802,33,107,9.789,0.015,5.767e-9,-0.007,-7.955e-5,3.24e4,43.557,49.537,0.123,309.664,235.143,4.62,0.728,5.224e7,0,364.923,0.622,0.622,0.384,0.049,0.189,0.002,0.012,-3.979e-4,0,0,0,0,-6.576e-4,0.031,16.129,204.317,86.299,0.013,3.375,22.726,773.368,345.071,0.05,0.115
5.187,903.633,249.53,-20.883,249.862,20.918,37.602,0.008,37.602,0.012,12.861,1.205,33,107,9.789,0.166,6.611e-9,-0.006,-1.014e-5,3.24e4,43.557,49.537,0.123,308.793,235.143,4.566,0.725,5.199e7,0,361.08,0.621,0.621,0.385,0.048,0.188,0.027,0.123,-3.286e-5,0,0,0,0,-5.036e-4,0.031,16.129,204.317,86.426,0.012,3.462,22.612,772.248,345.002,0.05,0.115
5.237,916.084,248.49,-20.75,248.819,20.803,38.244,0.008,38.244,0.012,12.792,1.488,33,107,9.789,0.274,-9.341e-9,-0.004,3.981e-6,3.24e4,43.557,49.537,0.123,308.186,235.143,4.529,0.722,5.173e7,0,357.304,0.621,0.621,0.385,0.048,0.188,0.044,0.201,-2.118e-4,0,0,0,0,-1.871e-4,0.03,16.129,204.317,86.521,0.012,3.52,22.499,771.133,344.933,0.05,0.115
5.287,928.482,247.455,-20.625,247.782,20.692,38.881,0.008,38.881,0.012,12.713,1.669,33,107,9.789,0.344,0,-5.451e-4,-9.386e-6,3.24e4,43.557,49.537,0.123,307.792,235.143,4.504,0.719,5.148e7,0,353.59,0.62,0.62,0.385,0.048,0.187,0.056,0.252,-4.115e-4,0,0,0,0,-3.657e-6,0.03,16.129,204.317,86.561,0.013,3.655,22.386,770.022,344.865,0.05,0.116
5.337,940.829,246.427,-20.512,246.75,20.575,39.515,0.008,39.515,0.012,12.629,1.619,33,107,9.789,0.331,0,0.003,-6.251e-6,3.24e4,43.557,49.537,0.123,307.844,235.143,4.507,0.716,5.123e7,0,349.855,0.619,0.619,0.385,0.047,0.187,0.054,0.242,-3.006e-5,0,0,0,0,1.277e-4,0.03,16.129,204.317,86.536,0.014,3.718,22.274,768.916,344.797,0.05,0.116
5.387,953.125,245.404,-20.409,245.725,20.456,40.144,0.009,40.144,0.012,12.554,1.396,33,107,9.788,0.252,0,0.006,-1.004e-5,3.24e4,43.557,49.537,0.123,308.247,235.143,4.532,0.713,5.098e7,0,346.128,0.618,0.618,0.385,0.047,0.186,0.041,0.185,4.387e-5,0,0,0,0,5.028e-4,0.03,16.129,204.317,86.448,0.016,3.763,22.162,767.814,344.729,0.05,0.116
5.437,965.37,244.386,-20.315,244.705,20.343,40.77,0.009,40.77,0.013,12.492,1.053,33,107,9.788,0.125,-5.33e-9,0.008,-1.209e-5,3.24e4,43.557,49.537,0.123,308.923,235.143,4.574,0.711,5.073e7,0,342.444,0.618,0.618,0.385,0.046,0.186,0.02,0.091,3.442e-4,0,0,0,0,8.847e-4,0.03,16.129,204.317,86.312,0.018,3.789,22.051,766.717,344.662,0.05,0.117
5.487,977.564,243.372,-20.219,243.69,20.237,41.394,0.009,41.394,0.013,12.446,0.836,33,107,9.788,0.039,0,0.009,-7.29e-5,3.24e4,43.557,49.537,0.123,309.375,235.143,4.602,0.708,5.048e7,0,338.903,0.617,0.617,0.386,0.046,0.185,0.006,0.028,-7.565e-6,0,0,0,0,0.001,0.03,16.129,204.317,86.153,0.02,4.079,21.94,765.625,344.594,0.05,0.117
5.537,989.707,242.364,-20.129,242.681,20.137,42.015,0.009,42.015,0.013,12.41,0.578,33,107,9.788,0.065,-1.028e-8,-0.009,-3.487e-5,3.24e4,43.557,49.537,0.123,309.229,235.143,4.593,0.705,5.024e7,0,335.413,0.616,0.616,0.386,0.046,0.185,0.01,0.049,1.341e-4,0,0,0,0,-0.001,0.03,16.129,204.317,85.987,0.021,4.309,21.829,764.537,344.527,0.05,0.118
5.587,1001.8,241.359,-20.053,241.677,20.053,42.635,0.01,42.635,0.013,12.391,0.16,33,107,9.788,0.229,0,-0.008,-1.062e-5,3.24e4,43.557,49.537,0.123,308.31,235.143,4.536,0.702,4.999e7,0,331.944,0.615,0.615,0.386,0.045,0.184,0.037,0.168,-8.453e-5,0,0,0,0,-7.499e-4,0.03,16.129,204.317,85.835,0.021,4.208,21.719,763.453,344.461,0.05,0.118
5.637,1013.843,240.359,-19.968,240.678,19.968,43.255,0.01,43.255,0.013,12.391,0.095,33,107,9.788,0.329,0,-0.005,-9.975e-6,3.24e4,43.557,49.537,0.123,307.749,235.143,4.502,0.7,4.975e7,0,328.543,0.615,0.615,0.386,0.045,0.184,0.053,0.241,-4.785e-4,0,0,0,0,-2.764e-4,0.029,16.129,204.317,85.724,0.02,4.183,21.61,762.374,344.394,0.05,0.118
5.687,1025.836,239.363,-19.871,239.684,19.872,43.874,0.01,43.874,0.013,12.399,0.194,33,107,9.788,0.369,5.317e-9,-0.001,-9.634e-6,3.24e4,43.557,49.537,0.123,307.518,235.143,4.487,0.697,4.951e7,0,325.157,0.614,0.614,0.386,0.044,0.183,0.06,0.269,4.287e-5,0,0,0,0,-1.559e-5,0.029,16.129,204.317,85.673,0.019,4.158,21.501,761.3,344.328,0.05,0.119
5.737,1037.779,238.372,-19.764,238.694,19.765,44.495,0.01,44.495,0.013,12.409,0.177,33,107,9.788,0.362,0,0.003,-6.351e-6,3.24e4,43.557,49.537,0.123,307.537,235.143,4.488,0.694,4.927e7,0,321.765,0.613,0.614,0.387,0.044,0.183,0.059,0.265,1.928e-4,0,0,0,0,8.957e-5,0.029,16.129,204.317,85.688,0.017,4.048,21.392,760.23,344.262,0.05,0.119
5.787,1049.673,237.386,-19.64,237.711,19.641,45.115,0.011,45.115,0.013,12.413,0.069,33,107,9.788,0.265,1.003e-8,0.006,-6.666e-6,3.24e4,43.557,49.537,0.123,308.044,235.143,4.52,0.691,4.903e7,0,318.387,0.613,0.613,0.387,0.044,0.182,0.043,0.193,1.428e-4,0,0,0,0,4.509e-4,0.029,16.129,204.317,85.766,0.015,4.062,21.284,759.164,344.197,0.05,0.12
5.837,1061.518,236.408,-19.515,236.733,19.518,45.736,0.011,45.736,0.014,12.402,0.359,33,107,9.788,0.144,0,0.008,-1.976e-5,3.24e4,43.557,49.537,0.123,308.683,235.143,4.56,0.689,4.879e7,0,315.047,0.612,0.612,0.387,0.043,0.182,0.023,0.105,-2.843e-6,0,0,0,0,8.12e-4,0.029,16.129,204.317,85.891,0.013,3.992,21.176,758.103,344.131,0.05,0.12
5.887,1073.314,235.435,-19.386,235.76,19.401,46.355,0.011,46.355,0.014,12.374,0.753,33,107,9.788,0.024,0,-0.008,-1.278e-4,3.24e4,43.557,49.537,0.123,309.364,235.143,4.602,0.686,4.855e7,0,311.801,0.611,0.611,0.387,0.043,0.181,0.004,0.018,-3.252e-4,0,0,0,0,-9.666e-4,0.029,16.129,204.317,86.039,0.012,4.033,21.069,757.046,344.066,0.05,0.12
5.937,1085.062,234.469,-19.268,234.793,19.296,46.973,0.011,46.973,0.014,12.328,1.046,33,107.001,9.788,0.153,0,-0.007,-2.046e-5,3.24e4,43.557,49.537,0.123,308.609,235.143,4.555,0.683,4.832e7,0,308.612,0.611,0.611,0.387,0.043,0.181,0.025,0.113,2.193e-4,0,0,0,0,-7.606e-4,0.029,16.129,204.317,86.184,0.012,3.95,20.962,755.994,344.002,0.05,0.121
5.987,1096.761,233.508,-19.151,233.83,19.202,47.588,0.012,47.588,0.014,12.267,1.393,33,107.001,9.788,0.302,0,-0.005,-9.789e-6,3.24e4,43.557,49.537,0.123,307.782,235.143,4.504,0.681,4.809e7,0,305.546,0.61,0.61,0.387,0.042,0.18,0.049,0.221,-1.942e-4,0,0,0,0,-3.999e-4,0.029,16.129,204.317,86.302,0.012,4.073,20.855,754.946,343.937,0.05,0.121
6.037,1108.413,232.553,-19.05,232.873,19.109,48.199,0.012,48.199,0.014,12.193,1.511,33,107.001,9.788,0.358,7.15e-9,-0.002,-1.367e-5,3.24e4,43.557,49.537,0.123,307.466,235.143,4.484,0.678,4.786e7,0,302.468,0.609,0.61,0.388,0.042,0.18,0.058,0.261,-3.552e-5,0,0,0,0,-5.939e-5,0.028,16.129,204.317,86.369,0.014,4.034,20.749,753.935,343.873,0.05,0.121
6.087,1120.017,231.603,-18.958,231.92,19.013,48.807,0.012,48.807,0.014,12.118,1.457,33,107.001,9.788,0.343,0,0.001,-9.711e-6,3.24e4,43.557,49.537,0.123,307.531,235.143,4.488,0.675,4.763e7,0,299.378,0.609,0.609,0.388,0.042,0.179,0.056,0.251,-2.099e-4,0,0,0,0,2.007e-5,0.028,16.129,204.317,86.376,0.016,3.946,20.644,752.939,343.809,0.05,0.122
6.137,1131.573,230.658,-18.873,230.972,18.916,49.411,0.012,49.411,0.014,12.049,1.283,33,107.001,9.788,0.276,0,0.004,-5.865e-6,3.24e4,43.557,49.537,0.123,307.879,235.143,4.51,0.673,4.74e7,0,296.301,0.608,0.608,0.388,0.041,0.179,0.045,0.201,1.573e-4,0,0,0,0,2.395e-4,0.028,16.129,204.317,86.326,0.018,3.873,20.539,751.947,343.745,0.05,0.122
6.187,1143.082,229.716,-18.795,230.029,18.822,50.012,0.013,50.012,0.014,11.992,1.013,33,107.001,9.788,0.163,7.567e-9,0.006,-7.849e-6,3.24e4,43.557,49.537,0.123,308.473,235.143,4.547,0.67,4.717e7,0,293.254,0.608,0.608,0.388,0.041,0.178,0.026,0.119,2.116e-4,0,0,0,0,5.389e-4,0.028,16.129,204.317,86.232,0.02,3.792,20.434,750.959,343.682,0.05,0.123
6.237,1154.545,228.778,-18.718,229.09,18.735,50.611,0.013,50.611,0.015,11.947,0.785,33,107.001,9.788,0.064,-7.876e-9,0.007,-2.771e-5,3.24e4,43.557,49.537,0.123,309.006,235.143,4.58,0.667,4.695e7,0,290.296,0.607,0.607,0.388,0.041,0.178,0.01,0.046,-3.462e-4,0,0,0,0,7.287e-4,0.028,16.129,204.317,86.11,0.021,3.858,20.33,749.975,343.619,0.05,0.123
6.287,1165.96,227.844,-18.646,228.155,18.653,51.207,0.013,51.207,0.015,11.914,0.531,33,107.001,9.788,0.051,0,-0.007,-3.087e-5,3.24e4,43.557,49.537,0.123,309.075,235.143,4.584,0.665,4.673e7,0,287.387,0.606,0.606,0.388,0.041,0.177,0.008,0.039,-4.096e-4,0,0,0,0,-7.558e-4,0.028,16.129,204.317,85.979,0.023,3.891,20.226,748.995,343.556,0.05,0.123
6.337,1177.329,226.913,-18.58,227.225,18.581,51.802,0.013,51.802,0.015,11.896,0.22,33,107.001,9.788,0.19,0,-0.006,-4.258e-6,3.24e4,43.557,49.537,0.123,308.29,235.143,4.535,0.662,4.65e7,0,284.514,0.606,0.606,0.389,0.04,0.177,0.031,0.139,-3.358e-5,0,0,0,0,-5.524e-4,0.028,16.129,204.317,85.857,0.024,3.776,20.122,748.019,343.493,0.05,0.124
6.387,1188.652,225.986,-18.507,226.299,18.507,52.397,0.014,52.397,0.015,11.89,0.026,33,107.001,9.788,0.278,9.051e-9,-0.004,-8.693e-6,3.24e4,43.557,49.537,0.123,307.798,235.143,4.505,0.66,4.628e7,0,281.696,0.605,0.605,0.389,0.04,0.177,0.045,0.203,-1.478e-4,0,0,0,0,-2.346e-4,0.028,16.129,204.317,85.765,0.025,3.734,20.019,747.047,343.431,0.05,0.124
6.437,1199.928,225.063,-18.425,225.377,18.425,52.991,0.014,52.991,0.015,11.891,0.02,33,107.001,9.788,0.3,0,-0.001,-2.533e-6,3.24e4,43.557,49.537,0.123,307.664,235.143,4.496,0.657,4.607e7,0,278.902,0.605,0.605,0.389,0.04,0.176,0.049,0.219,1.028e-4,0,0,0,0,-3.044e-5,0.028,16.129,204.317,85.716,0.025,3.777,19.917,746.079,343.368,0.05,0.125
6.487,1211.158,224.144,-18.332,224.459,18.332,53.586,0.014,53.586,0.015,11.89,0.068,33,107.001,9.788,0.263,0,0.001,-5.476e-6,3.24e4,43.557,49.537,0.123,307.854,235.143,4.508,0.655,4.585e7,0,276.123,0.604,0.604,0.389,0.039,0.176,0.042,0.191,1.604e-4,0,0,0,0,1.66e-5,0.027,16.129,204.317,85.714,0.025,3.875,19.815,745.115,343.306,0.05,0.125
6.537,1222.342,223.23,-18.237,223.546,18.238,54.18,0.014,54.18,0.015,11.884,0.196,33,107.001,9.788,0.204,0,0.003,-4.743e-6,3.24e4,43.557,49.537,0.123,308.16,235.143,4.527,0.652,4.563e7,0,273.357,0.604,0.604,0.389,0.039,0.175,0.033,0.148,1.758e-5,0,0,0,0,1.395e-4,0.027,16.129,204.317,85.752,0.023,3.901,19.713,744.154,343.245,0.05,0.126
